     2.11           OBSERVATION DATA    Mixed(MIXED)        RINEX VERSION / TYPE
cnvtToRINEX 2.03.0  convertToRINEX OPR  28-Feb-11 14:16 UTC PGM / RUN BY / DATE 
----------------------------------------------------------- COMMENT             
8909                                                        MARKER NAME         
8909                                                        MARKER NUMBER       
GNSS Observer       Trimble                                 OBSERVER / AGENCY   
4804144251          R8 Model 2          Version 3.64        REC # / TYPE / VERS 
                    TRM60158.00                             ANT # / TYPE        
  4929478.0463   -28766.6571  4033740.2702                  APPROX POSITION XYZ 
        1.9000        0.0000        0.0000                  ANTENNA: DELTA H/E/N
     1     1     0                                          WAVELENGTH FACT L1/2
     5    C1    C2    L1    L2    P2                        # / TYPES OF OBSERV 
  2011     2    28    13    31   50.0000000     GPS         TIME OF FIRST OBS   
  2011     2    28    14     4   25.0000000     GPS         TIME OF LAST OBS    
     0                                                      RCV CLOCK OFFS APPL 
    15                                                      LEAP SECONDS        
    18                                                      # OF SATELLITES     
   G02   392     0   390   390   392                        PRN / # OF OBS      
   G04   392     0   392   392   392                        PRN / # OF OBS      
   G05    22    22    22    44    22                        PRN / # OF OBS      
   G07   391   390   389   775   387                        PRN / # OF OBS      
   G08   304     0   282   270   287                        PRN / # OF OBS      
   G10   392     0   392   392   392                        PRN / # OF OBS      
   G13   392     0   392   392   392                        PRN / # OF OBS      
   G17    22    21    20    39    20                        PRN / # OF OBS      
   G20   380     0   362   353   368                        PRN / # OF OBS      
   G23   390     0   386   384   387                        PRN / # OF OBS      
   R01   350     0   349   346   347                        PRN / # OF OBS      
   R02   391     0   390   391   391                        PRN / # OF OBS      
   R11   337     0   333   331   334                        PRN / # OF OBS      
   R12   391     0   391   391   391                        PRN / # OF OBS      
   R13   287     0   285   271   274                        PRN / # OF OBS      
   R17   316     0   308   307   309                        PRN / # OF OBS      
   R18   384     0   383   380   384                        PRN / # OF OBS      
   R19    11     0    11     1    10                        PRN / # OF OBS      
CARRIER PHASE MEASUREMENTS: PHASE SHIFTS REMOVED            COMMENT             
                                                            END OF HEADER       
 11  2 28 13 31 50.0000000  0 16G02G04G07G08G10G13G17G20G23R01R02R11
                                R12R13R17R18
  22527689.086 7                   -578290.975 7   -410051.96348  22527682.94948
  20593906.672 7                   -142315.266 7   -103992.19948  20593902.01648
  22312367.273 6  22312363.496 9   -573672.801 6   -426591.952 9  22312363.52047
  24649943.453 3                   -696710.409 3   -499047.10745  24649943.55545
  21574180.359 7                   -440212.809 7   -323130.81248  21574175.09448
  20159532.789 7                     35621.205 7     26243.45049  20159527.23449
  24435415.719 6  24435413.602 9    417737.346 6    319304.620 9  24435413.80147
  23108319.461 5                    344109.572 5    249072.03046  23108315.90646
  21789481.414 7                    326180.505 7    238895.05548  21789474.12548
  21975436.727 7                    277875.380 7    205734.181 8  21975443.121 8
  19981973.117 9                   -127270.254 9    -94211.274 9  19981980.414 9
  21682862.406 6                    242033.680 6    179454.101 8  21682869.020 8
  20647552.734 7                   -446216.926 7   -329944.882 9  20647562.945 9
  23174371.141 6                   -645644.090 6   -481288.202 8  23174379.656 8
  21946454.047 6                    420271.088 6    311362.996 8  21946462.590 8
  21922170.063 8                   -124733.763 8    -92183.249 9  21922177.883 9
 11  2 28 13 31 55.0000000  0 16G02G04G07G08G10G13G17G20G23R01R02R11
                                R12R13R17R18
  22524473.070 7                   -595192.250 7   -423221.78348  22524466.78548
  20593144.477 7                   -146318.992 7   -107111.98849  20593140.26249
  22309018.602 6  22309014.680 9   -591270.284 6   -440304.276 9  22309014.71147
  24646010.141 3                   -717385.837 3   -515157.78545  24646009.27745
  21571728.266 7                   -453097.688 7   -333170.97748  21571723.76648
  20159753.070 7                     36780.582 7     27146.87049  20159747.85949
  24437885.789 6  24437883.297 9    430717.074 6    329418.656 9  24437883.78947
  23110335.898 5                    354704.983 5    257328.19246  23110331.97746
  21791286.008 7                    335664.841 7    246285.44348  21791278.95748
  21977054.828 7                    286525.357 7    212461.932 8  21977061.789 8
  19981223.586 9                   -131270.820 9    -97322.823 9  19981230.516 9
  21684320.109 6                    249821.048 6    185510.946 8  21684325.820 8
  20644970.695 7                   -460014.856 7   -340676.616 9  20644979.809 9
  23169692.258 6                   -670626.889 6   -500719.249 8  23169700.973 8
  21948929.805 5                    433518.856 5    321666.811 8  21948937.652 8
  21921480.750 8                   -128410.762 8    -95043.148 9  21921489.152 9
 11  2 28 13 32  0.0000000  0 16G02G04G07G08G10G13G17G20G23R01R02R11
                                R12R13R17R18
  22521257.078 7                   -612092.434 7   -436390.76148  22521250.52748
  20592384.031 7                   -150315.410 7   -110226.08449  20592379.44549
  22305669.852 6  22305666.648 9   -608867.538 6   -454016.416 9  22305666.18447
  24642074.156 4                   -738069.766 4   -531275.12345  24642072.62545
  21569275.727 7                   -465985.492 7   -343213.41948  21569271.25848
  20159974.578 7                     37943.700 7     28053.19049  20159969.08649
  24440353.438 6  24440351.406 9    443688.281 6    339526.058 9  24440352.03147
  23112351.109 5                    365296.622 5    265581.40846  23112347.53146
  21793090.422 7                    345146.695 7    253673.89648  21793083.20748
  21978671.906 7                    295171.179 7    219186.455 8  21978679.328 8
  19980474.359 9                   -135272.900 9   -100435.550 9  19980480.828 9
  21685779.297 6                    257620.047 6    191576.838 8  21685785.371 8
  20642389.727 7                   -473802.401 7   -351400.267 9  20642398.434 9
  23165012.102 5                   -695615.674 5   -520154.967 8  23165021.492 8
  21951406.484 6                    446770.655 6    331973.745 8  21951414.223 8
  21920794.688 8                   -132074.687 8    -97892.878 9  21920802.629 9
 11  2 28 13 32  5.0000000  0 16G02G04G07G08G10G13G17G20G23R01R02R11
                                R12R13R17R18
  22518041.602 7                   -628991.069 7   -449558.52948  22518034.94948
  20591624.898 7                   -154303.916 7   -113334.01249  20591620.15249
  22302321.844 6  22302317.719 9   -626464.108 6   -467728.029 9  22302317.48847
  24638136.555 4                   -758761.686 4   -547398.67946  24638135.22346
  21566823.141 7                   -478875.765 7   -353257.78348  21566818.54748
  20160196.578 7                     39110.960 7     28962.75149  20160191.19149
  24442820.805 6  24442818.449 9    456651.517 6    349627.238 9  24442818.65247
  23114365.828 5                    375884.907 5    273832.02347  23114362.64847
  21794894.297 7                    354626.562 7    261060.80648  21794887.28548
  21980288.750 6                    303813.298 6    225908.098 8  21980296.898 8
  19979723.383 9                   -139276.232 9   -103549.252 9  19979729.699 9
  21687240.938 6                    265431.015 6    197652.023 8  21687246.668 8
  20639810.063 7                   -487579.091 7   -362115.460 9  20639819.605 9
  23160331.000 5                   -720610.208 5   -539595.126 8  23160341.320 8
  21953883.789 6                    460026.883 6    342284.135 9  21953891.461 9
  21920110.867 8                   -135725.011 8   -100732.012 9  21920118.766 9
 11  2 28 13 32 10.0000000  0 16G02G04G07G08G10G13G17G20G23R01R02R11
                                R12R13R17R18
  22514825.805 7                   -645889.464 7   -462726.11248  22514819.18848
  20590866.977 7                   -158285.977 7   -116436.91049  20590862.37149
  22298973.039 6  22298968.977 9   -644061.252 6   -481440.097 9  22298969.18847
  24634196.977 3                   -779462.977 3   -563529.50946  24634195.73846
  21564368.992 7                   -491769.865 7   -363305.13548  21564364.71948
  20160419.742 7                     40281.080 7     29874.53149  20160414.16849
  24445285.539 6  24445283.770 9    469605.413 6    359721.147 9  24445283.91447
  23116379.469 5                    386468.502 5    282078.97347  23116376.37947
  21796697.164 7                    364103.091 7    268445.10748  21796690.53548
  21981904.820 6                    312450.471 6    232625.893 8  21981912.535 8
  19978972.922 9                   -143281.903 9   -106664.772 9  19978979.570 9
  21688703.797 6                    273252.691 6    203735.569 8  21688710.387 8
  20637232.813 7                   -501346.177 7   -372823.196 9  20637242.266 9
  23155648.992 5                   -745611.545 5   -559040.572 8  23155660.117 8
  21956362.234 6                    473286.135 6    352596.882 9  21956369.016 9
  21919429.172 8                   -139362.855 8   -103561.450 9  21919437.340 9
 11  2 28 13 32 15.0000000  0 16G02G04G07G08G10G13G17G20G23R01R02R11
                                R12R13R17R18
  22511610.484 7                   -662786.528 7   -475892.64648  22511603.85548
  20590111.102 7                   -162260.482 7   -119533.92248  20590106.27348
  22295624.938 6  22295620.934 9   -661657.940 6   -495151.795 9  22295620.77747
  24630254.961 4                   -800172.572 4   -579666.77146  24630254.48846
  21561914.961 7                   -504666.598 7   -373354.53048  21561910.78148
  20160642.500 7                     41455.136 7     30789.38249  20160637.20349
  24447748.688 6  24447746.816 9    482551.045 6    369808.606 9  24447747.03947
  23118393.641 5                    397048.529 5    290323.13347  23118389.77747
  21798500.453 7                    373577.388 7    275827.67848  21798493.58248
  21983520.594 6                    321083.733 6    239340.641 8  21983527.602 8
  19978221.859 9                   -147289.064 9   -109781.454 9  19978228.340 9
  21690170.117 6                    281086.066 6    209828.186 8  21690176.164 8
  20634657.781 7                   -515102.615 7   -383522.654 9  20634666.977 9
  23150966.688 6                   -770618.624 6   -578490.482 8  23150977.824 8
  21958839.102 6                    486549.432 6    362912.759 9  21958847.676 9
  21918750.273 8                   -142987.324 8   -106380.479 9  21918758.254 9
 11  2 28 13 32 20.0000000  0 16G02G04G07G08G10G13G17G20G23R01R02R11
                                R12R13R17R18
  22508395.234 7                   -679681.915 7   -489057.88248  22508388.76248
  20589356.070 7                   -166227.001 7   -122624.72949  20589351.58249
  22292276.141 6  22292272.164 9   -679253.770 6   -508862.817 9  22292271.97347
  24626313.750 4                   -820890.021 4   -595810.24446  24626312.09446
  21559460.266 7                   -517565.720 7   -383405.79448  21559455.87548
  20160867.055 7                     42633.444 7     31707.54849  20160861.69949
  24450210.867 5  24450209.293 9    495488.686 5    379889.800 9  24450209.39147
  23120406.234 5                    407625.276 5    298564.74347  23120402.91447
  21800303.070 7                    383049.780 7    283208.75948  21800296.12548
  21985135.031 6                    329713.321 6    246052.552 8  21985142.242 8
  19977470.469 9                   -151297.217 9   -112898.912 9  19977477.113 9
  21691638.680 7                    288931.507 7    215930.192 8  21691645.566 8
  20632084.469 7                   -528848.095 7   -394213.574 9  20632093.395 9
  23146282.898 6                   -795631.163 6   -597944.683 8  23146293.762 8
  21961319.906 6                    499817.059 6    373232.007 8  21961326.953 8
  21918073.492 8                   -146598.026 8   -109188.797 9  21918081.281 9
 11  2 28 13 32 25.0000000  0 16G02G04G07G08G10G13G17G20G23R01R02R11
                                R12R13R17R18
  22505180.648 7                   -696575.455 7   -502221.67748  22505174.17248
  20588603.117 7                   -170185.473 7   -125709.24649  20588598.56349
  22288927.891 6  22288923.867 9   -696848.593 6   -522573.077 9  22288923.87547
  24622369.742 4                   -841615.227 4   -611959.68746  24622367.83246
  21557005.289 7                   -530467.049 7   -393458.77948  21557000.29348
  20161091.859 7                     43816.181 7     32629.15749  20161087.21149
  24452671.875 6  24452670.012 9    508418.537 6    389965.033 9  24452670.02047
  23122418.563 5                    418198.919 5    306803.95246  23122414.67246
  21802105.164 7                    392520.317 7    290588.39048  21802098.36348
  21986748.445 6                    338339.531 6    252761.809 8  21986755.941 8
  19976719.148 9                   -155306.203 9   -116017.010 9  19976726.238 9
  21693108.492 6                    296789.095 6    222041.656 8  21693115.477 8
  20629513.391 7                   -542582.323 7   -404895.746 9  20629521.762 9
  23141597.289 6                   -820648.993 6   -617402.960 8  23141610.184 8
  21963800.203 6                    513089.256 6    383554.840 8  21963807.883 8
  21917399.570 8                   -150194.874 8   -111986.352 9  21917407.574 9
 11  2 28 13 32 30.0000000  0 16G02G04G07G08G10G13G17G20G23R01R02R11
                                R12R13R17R18
  22501966.523 7                   -713465.817 7   -515383.00348  22501960.00448
  20587851.492 8                   -174134.558 8   -128786.46249  20587846.94549
  22285580.195 6  22285576.223 9   -714441.067 6   -536281.509 9  22285576.34047
  24618424.633 5                   -862346.823 5   -628114.15946  24618423.34046
  21554550.008 7                   -543369.273 7   -403512.45948  21554545.43048
  20161318.547 7                     45004.638 7     33555.22949  20161313.36349
  24455130.773 5  24455129.398 9    521341.853 5    400035.113 9  24455129.34047
  23124429.656 5                    428770.792 5    315041.76247  23124426.63347
  21803907.258 7                    401990.406 7    297967.67648  21803900.58648
  21988361.516 7                    346963.669 7    259469.471 8  21988368.691 8
  19975968.352 9                   -159314.734 9   -119134.758 9  19975975.207 9
  21694582.547 6                    304660.267 6    228163.673 8  21694588.227 8
  20626945.375 8                   -556304.071 8   -415568.226 9  20626953.574 9
  23136911.945 6                   -845670.785 6   -636864.339 8  23136924.543 8
  21966281.594 6                    526367.376 6    393882.264 8  21966288.699 8
  21916728.133 8                   -153776.552 8   -114772.103 9  21916737.410 9
 11  2 28 13 32 35.0000000  0 16G02G04G07G08G10G13G17G20G23R01R02R11
                                R12R13R17R18
  22498752.516 7                   -730353.953 7   -528542.58648  22498746.09448
  20587101.453 7                   -178075.163 7   -131857.06249  20587097.01649
  22282233.055 6  22282228.672 9   -732032.202 6   -549988.871 9  22282228.65647
  24614478.023 5                   -883085.745 5   -644274.32546  24614476.85946
  21552094.438 7                   -556273.343 7   -413567.57448  21552089.81648
  20161545.266 7                     46197.841 7     34484.99549  20161540.08249
  24457588.359 5  24457587.254 9    534257.677 5    410099.344 9  24457587.35547
  23126441.484 6                    439339.869 6    323277.39747  23126437.73047
  21805708.977 7                    411458.985 7    305345.78748  21805702.26248
  21989974.063 7                    355584.696 7    266174.706 8  21989981.781 8
  19975216.797 9                   -163323.788 9   -122252.915 9  19975223.707 9
  21696056.492 6                    312543.956 6    234295.434 8  21696064.488 8
  20624378.289 8                   -570014.294 8   -426231.735 9  20624387.703 9
  23132225.969 6                   -870697.366 6   -656329.460 8  23132238.238 8
  21968763.133 6                    539650.352 6    404213.470 8  21968771.113 8
  21916060.500 8                   -157343.663 8   -117546.535 9  21916068.391 9
 11  2 28 13 32 40.0000000  0 16G02G04G07G08G10G13G17G20G23R01R02R11
                                R12R13R17R18
  22495540.000 7                   -747238.693 7   -541699.52348  22495533.25448
  20586353.484 7                   -182006.217 7   -134920.22649  20586348.74649
  22278886.406 6  22278881.574 9   -749620.723 6   -563694.222 9  22278881.04747
  24610530.430 5                   -903830.935 5   -660439.35846  24610528.98846
  21549638.727 7                   -569178.085 7   -423623.22848  21549633.59048
  20161773.875 7                     47396.945 7     35419.36549  20161767.91849
  24460044.414 5  24460044.004 9    547167.153 5    420158.680 9  24460044.12547
  23128452.109 5                    449907.331 5    331511.77347  23128448.75047
  21807511.039 7                    420927.301 7    312723.68848  21807504.04348
  21991587.031 7                    364203.930 7    272878.553 8  21991594.543 8
  19974465.414 9                   -167332.089 9   -125370.477 9  19974472.547 9
  21697534.164 6                    320441.355 6    240437.844 8  21697541.945 8
  20621814.453 7                   -583711.657 7   -436885.230 9  20621822.816 9
  23127538.031 6                   -895727.585 6   -675797.369 8  23127550.516 8
  21971246.727 6                    552939.225 6    414549.253 8  21971254.453 8
  21915394.742 8                   -160895.693 8   -120309.220 9  21915403.492 9
 11  2 28 13 32 45.0000000  0 16G02G04G07G08G10G13G17G20G23R01R02R11
                                R12R13R17R18
  22492327.125 7                   -764121.278 7   -554854.77948  22492320.85548
  20585607.148 7                   -185928.940 7   -137976.88649  20585602.35949
  22275539.336 5  22275535.422 9   -767207.911 5   -577398.523 9  22275534.96947
  24606580.953 5                   -924583.486 5   -676610.14846  24606580.18846
  21547182.945 7                   -582084.726 7   -433680.34948  21547177.87148
  20162002.789 7                     48600.691 7     36357.35149  20161997.35549
  24462499.852 5  24462499.324 9    560069.053 5    430212.063 9  24462499.42647
  23130462.500 5                    460471.991 5    339743.96947  23130459.39847
  21809312.148 7                    430394.021 7    320100.35848  21809305.37948
  21993198.680 7                    372819.957 7    279579.906 8  21993205.727 8
  19973714.641 9                   -171341.008 9   -128488.522 9  19973721.145 9
  21699014.680 6                    328351.200 6    246589.929 8  21699021.188 8
  20619252.945 8                   -597397.546 8   -447529.793 9  20619260.703 9
  23122849.813 6                   -920762.671 6   -695269.088 8  23122863.125 8
  21973730.969 6                    566232.827 6    424888.731 8  21973738.859 8
  21914731.969 8                   -164433.392 8   -123060.769 9  21914741.074 9
 11  2 28 13 32 50.0000000  0 16G02G04G07G08G10G13G17G20G23R01R02R11
                                R12R13R17R18
  22489114.852 7                   -781001.456 7   -568008.16948  22489107.84448
  20584862.219 7                   -189843.074 7   -141026.87049  20584857.69949
  22272192.594 6  22272188.434 9   -784793.570 6   -591101.637 9  22272188.10947
  24602631.281 5                   -945343.267 5   -692786.59946  24602629.63346
  21544726.641 7                   -594993.074 7   -443738.80448  21544721.71548
  20162232.773 7                     49809.315 7     37299.13449  20162227.26649
  24464952.969 5  24464952.969 9    572963.619 5    440259.736 9  24464953.25447
  23132472.336 5                    471034.011 5    347974.10747  23132468.96147
  21811113.469 7                    439859.410 7    327475.97348  21811106.56648
  21994809.586 7                    381433.062 7    286278.978 8  21994815.820 8
  19972963.422 9                   -175350.269 9   -131606.843 9  19972969.352 9
  21700497.789 6                    336273.614 6    252751.809 8  21700503.691 8
  20616693.594 8                   -611071.700 8   -458165.242 9  20616700.965 9
  23118160.148 6                   -945802.412 6   -714744.463 8  23118174.020 8
  21976215.953 6                    579531.351 6    435232.014 9  21976224.309 9
  21914072.273 8                   -167956.655 8   -125801.099 9  21914080.746 9
 11  2 28 13 32 55.0000000  0 16G02G04G07G08G10G13G17G20G23R01R02R11
                                R12R13R17R18
  22485902.594 7                   -797880.214 7   -581160.44248  22485896.44548
  20584118.883 7                   -193749.557 7   -144070.87949  20584114.15249
  22268846.563 6  22268842.328 9   -802378.575 6   -604804.240 9  22268842.15247
  24598679.000 5                   -966111.166 5   -708969.30746  24598677.49646
  21542269.688 7                   -607904.109 7   -453799.34348  21542265.21548
  20162463.055 7                     51021.824 7     38243.94449  20162457.72349
  24467405.586 5  24467405.660 9    585849.637 5    450300.759 9  24467405.70347
  23134481.891 5                    481592.441 5    356201.43947  23134478.25847
  21812914.117 7                    449322.461 7    334849.78548  21812907.23048
  21996420.078 6                    390042.212 6    292974.989 8  21996425.949 8
  19972211.992 9                   -179360.881 9   -134726.209 9  19972218.055 9
  21701982.805 6                    344207.742 6    258922.796 8  21701988.371 8
  20614135.109 8                   -624735.021 8   -468792.273 9  20614143.617 9
  23113470.656 6                   -970847.746 6   -734224.126 8  23113483.098 8
  21978701.305 5                    592833.854 5    445578.410 9  21978709.344 9
  21913415.250 8                   -171466.510 8   -128530.987 9  21913422.605 9
 11  2 28 13 33  0.0000000  0 16G02G04G07G08G10G13G17G20G23R01R02R11
                                R12R13R17R18
  22482691.555 7                   -814756.394 7   -594310.70948  22482685.34448
  20583377.156 7                   -197647.307 7   -147108.08549  20583372.53549
  22265500.227 6  22265496.344 9   -819961.854 6   -618505.496 9  22265496.18847
  24594726.242 5                   -986886.078 5   -725157.51746  24594724.33246
  21539812.367 7                   -620816.662 7   -463861.07748  21539808.01248
  20162695.539 7                     52239.340 7     39192.65949  20162690.08649
  24469856.406 5  24469855.801 9    598728.430 5    460336.148 9  24469855.69947
  23136490.477 6                    492148.355 6    364426.83247  23136486.57447
  21814714.469 7                    458784.286 7    342222.63148  21814707.77748
  21998029.695 6                    398648.704 6    299668.896 8  21998036.203 8
  19971459.852 9                   -183371.660 9   -137845.705 9  19971466.625 9
  21703469.578 6                    352154.551 6    265103.655 8  21703475.281 8
  20611579.102 8                   -638386.437 8   -479410.028 9  20611588.406 9
  23108779.883 6                   -995897.693 6   -753707.392 8  23108792.863 8
  21981188.203 6                    606141.388 6    455928.697 9  21981196.410 9
  21912760.195 8                   -174961.732 8   -131249.491 9  21912767.711 9
 11  2 28 13 33  5.0000000  0 16G02G04G07G08G10G13G17G20G23R01R02R11
                                R12R13R17R18
  22479480.797 7                   -831625.806 7   -607455.71748  22479475.05548
  20582636.930 7                   -201537.785 7   -150139.63749  20582632.14849
  22262152.984 6  22262148.973 9   -837550.715 6   -632211.115 9  22262148.76247
  24590768.531 5                  -1007680.933 5   -741361.27346  24590767.41046
  21537355.367 7                   -633728.508 7   -473922.26248  21537350.24648
  20162928.695 7                     53467.417 7     40149.61748  20162923.54748
  24472302.680 4  24472301.855 9    611584.510 4    470353.830 9  24472301.99247
  23138500.406 5                    502709.494 5    372656.24746  23138496.21546
  21816517.836 7                    468258.780 7    349605.36948  21816511.10548
  21999642.711 6                    407264.862 6    306370.353 8  21999647.922 8
  19970710.305 8                   -187372.717 8   -140957.644 9  19970717.113 9
  21704961.883 6                    360130.542 6    271307.224 8  21704968.578 8
  20609025.953 8                   -652023.376 8   -490016.533 9  20609034.852 9
  23104085.984 6                  -1020962.731 6   -773202.430 8  23104095.406 8
  21983675.000 7                    619442.107 7    466273.658 8  21983681.266 8
  21912108.445 8                   -178440.359 8   -133955.108 9  21912116.293 9
 11  2 28 13 33 10.0000000  0 16G02G04G07G08G10G13G17G20G23R01R02R11
                                R12R13R17R18
  22476284.914 6                   -848420.932 6   -620542.85748  22476279.45348
  20581900.594 7                   -205406.995 7   -153154.65249  20581895.80949
  22258790.547 6  22258786.957 9   -855220.328 6   -645979.673 9  22258786.85548
  24586791.484 1                                                  24586790.40646
  21534908.719 7                   -646586.252 7   -483941.31348  21534903.88348
  20163167.125 7                     54719.644 7     41125.34648  20163161.34048
  24474734.852 5  24474734.082 8    624364.971 5    480312.509 8  24474734.50047
  23140502.086 5                    513231.306 5    380854.96046  23140498.25046
  21818326.766 6                    477765.597 6    357013.19547  21818320.32847
  22001253.000 6                    415876.021 6    313067.845 8  22001259.906 8
  19969970.383 8                   -191321.601 8   -144029.054 9  19969976.875 9
  21706466.258 6                    368166.911 6    277557.641 8  21706473.000 8
  20606466.609 8                   -665697.312 8   -500651.875 9  20606475.695 9
  23099371.555 6                  -1046134.625 6   -792780.538 8  23099379.484 8
  21986157.180 7                    632724.051 7    476604.026 8  21986163.281 8
  21911471.969 7                   -181837.362 7   -136597.274 9  21911479.824 9
 11  2 28 13 33 15.0000000  0 15G02G04G07G08G10G13G17G20G23R01R02R11
                                R12R17R18
  22473106.758 6                   -865124.329 6   -633558.55547  22473100.62947
  20581177.414 7                   -209204.846 7   -156114.03648  20581173.30548
  22255424.672 6  22255420.262 9   -872910.548 6   -659764.279 9  22255420.29348
  24582817.242 6                  -1049465.16816   -773920.41757  24582815.50047
  21532477.703 6                   -659359.170 6   -493894.26247  21532473.45347
  20163402.883 7                     55958.796 7     42090.87848  20163397.56648
  24477184.969 4  24477184.371 8    637242.927 4    490347.252 8  24477184.43047
  23142477.250 5                    523611.623 5    388943.53747  23142473.86347
  21820116.617 6                    487170.625 6    364341.77347  21820109.85947
  22002836.172 5                    424340.695 5    319651.422 8  22002843.578 8
  19969226.719 7                   -195288.742 7   -147114.646 9  19969233.223 9
  21707952.703 5                    376107.643 5    283733.721 7  21707958.625 7
  20603891.766 7                   -679451.816 7   -511349.838 9  20603899.938 9
  21988665.109 6                    646144.764 6    487042.327 8  21988671.621 8
  21910859.203 6                   -185110.541 6   -139143.146 8  21910867.012 8
 11  2 28 13 33 20.0000000  0 16G02G04G07G08G10G13G17G20G23R01R02R11
                                R12R13R17R18
  22469933.703 5                   -881799.132 5   -646551.88647  22469927.27047
  20580459.672 7                   -212978.981 7   -159054.91348  20580455.16448
  22252056.438 6  22252052.109 9   -890610.826 6   -673556.697 9  22252051.97748
  24578841.016 4                  -1070358.020 4   -790200.50547  24578839.51647
  21530051.594 6                   -672109.737 6   -503829.75947  21530047.19547
  20163639.258 7                     57199.168 7     43057.41448  20163633.69148
  24479637.398 2  24479637.527 8                                  24479637.37146
  23144446.313 5                    533953.307 5    397001.96547  23144441.70747
  21821901.758 6                    496552.452 6    371652.28547  21821895.16447
  22004412.563 4                    432767.827 4    326205.862 7  22004419.496 7
  19968482.734 7                   -199257.601 7   -150201.527 9  19968489.301 9
  21709436.609 4                    384038.740 4    289902.360 7  21709443.008 7
  20601314.016 7                   -693220.250 7   -522058.609 9  20601322.250 9
  23089934.313 4                  -1096525.67114   -831973.83918  23089943.414 8
  21991179.055 6                    659600.133 6    497507.604 8  21991185.941 8
  21910254.422 6                   -188338.405 6   -141653.676 8  21910262.262 8
 11  2 28 13 33 25.0000000  0 16G02G04G07G08G10G13G17G20G23R01R02R11
                                R12R13R17R18
  22466760.484 5                   -898473.772 5   -659545.12647  22466754.07047
  20579742.719 7                   -216743.092 7   -161987.99048  20579738.48048
  22248689.313 6  22248685.465 9   -908303.899 6   -687343.502 9  22248685.55948
  24574865.961 5                  -1091247.98715   -806478.36857  24574864.52347
  21527624.766 6                   -684863.089 6   -513767.45747  21527619.99247
  20163875.016 7                     58440.367 7     44024.57348  20163869.84048
  24482092.063 4  24482091.266 8    663027.88514    510439.31018  24482090.53946
  23146412.023 5                    544286.711 5    405053.97647  23146407.84447
  21823684.969 6                    505922.756 6    378953.82547  21823678.21547
  22005987.563 4                    441182.645 4    332750.704 7  22005994.449 7
  19967738.141 7                   -203234.087 7   -153294.355 9  19967744.902 9
  21710921.953 5                    391971.086 5    296071.959 7  21710928.047 7
  20598738.055 7                   -706978.304 7   -532759.318 9  20598747.211 9
  23085215.891 5                  -1121724.228 5   -851572.679 8  23085224.418 8
  21993697.297 6                    673069.691 6    507983.941 8  21993703.199 8
  21909652.305 6                   -191552.426 6   -144153.474 8  21909659.871 8
 11  2 28 13 33 30.0000000  0 16G02G04G07G08G10G13G17G20G23R01R02R11
                                R12R13R17R18
  22463576.391 6                   -915206.620 6   -672583.64948  22463569.69148
  20579020.570 7                   -220539.556 7   -164946.25548  20579016.39548
  22245326.133 6  22245322.180 9   -925976.472 6   -701114.312 9  22245322.39848
  24570886.750 5                                                  24570885.79747
  21525186.297 7                   -697676.299 7   -523751.72848  21525181.67648
  20164114.594 7                     59698.754 7     45005.18648  20164108.53148
  24484531.523 3                                                
  23148395.031 5                    554711.014 5    413176.79246  23148391.89546
  21825480.219 6                    515357.493 6    386305.59147  21825473.81347
  22007578.648 5                    449689.779 5    339367.403 7  22007584.965 7
  19966994.516 8                   -207200.027 8   -156378.931 9  19967000.922 9
  21712421.055 5                    399986.394 5    302306.123 7  21712427.535 7
  20596177.000 7                   -720660.729 7   -543401.193 8  20596185.652 8
  23080499.188 4                  -1146915.57014   -871165.84318  23080507.414 8
  21996200.039 6                    686457.074 6    518396.333 8  21996205.254 8
  21909039.875 6                   -194825.834 6   -146699.407 8  21909047.375 8
 11  2 28 13 33 35.0000000  0 13G02G04G07G08G10G13G17G23R02R11R12R17
                                R18
  22460383.273 7                   -931986.270 7   -685658.67648  22460376.94948
  20578289.648 7                   -224380.667 7   -167939.28749  20578285.26649
  22241960.711 6  22241955.840 8   -943664.413 6   -714897.134 8  22241956.03947
  24566893.898 4                  -1133141.88614   -839122.92156  24566892.32846
  21522737.859 7                   -710545.127 7   -533779.38048  21522732.82848
  20164360.930 7                     60992.239 7     46013.12048  20164355.59048
  24486944.703 3  24486942.801 8    688518.39213    527127.27118
  21827297.977 6                    524908.631 6    393748.05647  21827291.75047
  19966259.922 8                   -211119.747 8   -159427.584 9  19966266.109 9
  21713947.313 6                    408146.831 6    308653.144 8  21713955.352 8
  20593630.836 7                   -734262.680 7   -553980.450 8  20593639.625 8
  21998675.055 7                    699707.709 7    528702.394 8  21998681.012 8
  21908415.680 7                   -198156.767 7   -149290.146 8  21908423.770 8
 11  2 28 13 33 40.0000000  0 15G02G04G07G08G10G13G20G23R01R02R11R12
                                R13R17R18
  22457190.359 7                   -948763.566 7   -698731.89348  22457184.28548
  20577560.172 7                   -228215.116 7   -170927.18649  20577555.42249
  22238594.289 6  22238590.145 8   -961353.167 6   -728680.566 8  22238589.88747
  24562897.961 5                  -1154139.799 5   -855484.92847  24562896.41847
  21520288.445 7                   -723416.214 7   -543808.78548  21520283.49248
  20164608.016 7                     62292.688 7     47026.44848  20164602.67248
  23152408.031 5                     12724.12815                
  21829116.547 6                    534464.484 6    401194.16147  21829109.81647
  22010814.805 6                    466978.78316    352814.28017  22010821.512 7
  19965525.898 8                   -215036.295 8   -162473.799 9  19965532.848 9
  21715479.078 6                    416327.111 6    315015.603 8  21715485.996 8
  20591087.047 7                   -747850.541 7   -564548.793 8  20591096.340 8
  23071045.438 4                  -1197392.70014   -910425.79417  23071054.895 7
  22001149.672 6                    712956.337 6    539006.873 8  22001156.590 8
  21907793.648 7                   -201474.359 7   -151870.461 8  21907801.988 8
 11  2 28 13 33 45.0000000  0 15G02G04G07G08G10G13G20G23R01R02R11R12
                                R13R17R18
  22453989.031 7                   -965587.421 7   -711841.41448  22453983.00848
  20576833.391 8                   -232035.827 8   -173904.35449  20576828.20349
  22235243.555 6  22235239.977 9   -978961.435 6   -742401.313 9  22235239.35947
  24558922.414 5                  -1175035.148 5   -871766.97946  24558920.42646
  21517832.664 7                   -736322.357 7   -553865.52448  21517827.94948
  20164851.305 7                     63570.788 7     48022.36848  20164845.91848
  23154412.195 5                     23259.396 5      5909.51356  23154407.03546
  21830921.133 6                    543951.738 6    408586.82847  21830914.87947
  22012423.023 6                    475582.295 6    359505.917 7  22012429.227 7
  19964780.070 8                   -219014.843 8   -165568.198 9  19964787.453 9
  21716995.930 6                    424435.272 6    321321.956 7  21717002.777 7
  20588549.344 7                   -761404.538 7   -575090.788 8  20588558.531 8
  23066337.656 4                  -1222536.451 4   -929982.185 8  23066345.973 8
  22003638.867 7                    726274.995 7    549365.831 8  22003645.277 8
  21907166.758 7                   -204815.742 7   -154469.330 8  21907175.094 8
 11  2 28 13 33 50.0000000  0 15G02G04G07G08G10G13G20G23R01R02R11R12
                                R13R17R18
  22450782.914 7                   -982435.041 7   -724969.41948  22450777.36348
  20576108.500 8                   -235844.497 8   -176872.14449  20576103.44149
  22231901.797 6  22231897.734 9   -996524.263 6   -756086.628 9  22231897.87948
  24554955.961 5                  -1195877.580 5   -888007.81146  24554954.27746
  21515373.031 7                   -749247.848 7   -563937.32948  21515368.06648
  20165092.969 7                     64840.382 7     49011.65848  20165088.00448
  23156416.656 5                     33792.156 5     14116.85246  23156411.85946
  21832720.336 6                    553403.631 6    415951.91747  21832713.24647
  22014030.141 7                    484162.795 7    366179.567 7  22014035.832 7
  19964028.875 8                   -223025.492 8   -168687.602 9  19964035.223 9
  21718506.883 6                    432512.388 6    327604.167 8  21718515.063 8
  20586017.250 7                   -774932.787 7   -585612.751 8  20586024.816 8
  23061639.719 5                  -1247627.702 5   -949497.604 8  23061648.668 8
  22006135.398 7                    739633.391 7    559755.725 9  22006141.180 9
  21906540.367 7                   -208163.568 7   -157073.199 9  21906548.074 9
 11  2 28 13 33 55.0000000  0 14G02G04G07G08G10G13G20G23R01R02R11R12
                                R17R18
  22447581.734 7                   -999255.247 7   -738076.07748  22447576.18048
  20575385.516 7                   -239646.410 7   -179834.68849  20575380.29349
  22228553.414 6  22228548.445 9  -1014123.299 6   -769800.148 9  22228548.69948
  24550978.000 5                  -1216779.574 5   -904295.04546  24550976.18446
  21512916.070 7                   -762157.778 7   -573997.02048  21512911.32848
  20165338.242 7                     66128.112 7     50015.09648  20165332.97348
  23158420.859 5                     44323.465 5     22323.04046  23158416.28146
  21834524.953 6                    562886.095 6    423340.85547  21834517.62947
  22015636.023 5                    492759.710 5    372866.154 7  22015643.891 7
  19963282.891 8                   -227006.504 8   -171783.944 9  19963289.520 9
  21720030.250 6                    440642.486 6    333927.530 7  21720034.094 7
  20583484.773 7                   -788459.965 7   -596133.895 9  20583493.359 9
  22008627.688 7                    752966.108 7    570125.538 8  22008633.477 8
  21905919.984 7                   -211476.969 7   -159650.281 9  21905927.355 9
 11  2 28 13 34  0.0000000  0 12G02G04G07G08G10G13G23R02R11R12R17R18
  22444392.250 6                  -1016019.144 6   -751138.84248  22444386.25448
  20574662.484 7                   -243444.599 7   -182794.30549  20574657.48849
  22225188.531 6  22225184.297 9  -1031803.200 6   -783576.702 9  22225184.07448
  24546977.727 5                  -1237803.261 5   -920677.07346  24546975.20746
  21510466.109 7                   -775032.057 7   -584028.93348  21510461.98848
  20165589.742 7                     67450.103 7     51045.20848  20165584.39848
  21836342.234 6                    572438.067 6    430783.96947  21836335.76247
  19962549.289 7                   -230921.996 7   -174829.336 9  19962555.785 9
  21721569.977 5                    448875.119 5    340330.698 7  21721575.711 7
  20580950.297 7                   -801998.229 7   -606663.652 8  20580958.875 8
  22011107.539 6                    766236.296 6    580446.827 8  22011113.281 8
  21905309.609 6                   -214734.074 6   -162183.621 9  21905317.387 9
 11  2 28 13 34  5.0000000  0 10G02G04G07G08G10G13G23R02R11R12      
  22441209.484 6                  -1032743.899 6   -764171.10448  22441203.57448
  20573940.523 7                   -247236.244 7   -185748.84749  20573936.09849
  22221814.195 6  22221809.594 8  -1049535.840 6   -797394.341 8  22221809.70748
  24542961.039 5                  -1258911.008 5   -937124.67946  24542958.85546
  21508020.586 6                   -787881.925 6   -594041.81148  21508016.32848
  20165846.141 7                     68798.358 7     52095.80548  20165840.63748
  21838168.375 5                    582037.322 5    438263.90547  21838162.65247
  19961823.813 7                   -234792.439 7   -177839.680 9  19961830.590 9
  21723124.352 5                    457181.278 5    346791.058 8  21723130.984 8
  20578414.953 6                   -815538.542 6   -617194.980 8  20578424.883 8
 11  2 28 13 34 10.0000000  0 11G02G04G07G08G10G13G23R02R11R12R13   
  22438030.398 6                  -1049448.97116   -774583.83258  22438020.14848
  20573220.156 7                   -251021.714 7   -188698.56148  20573216.05948
  22218435.531 6  22218431.008 8  -1067291.543 6   -811229.965 8  22218430.82848
  24538934.641 4                  -1280060.441 4   -953604.73946  24538934.87546
  21505577.391 6                   -800722.352 6   -604047.33548  21505572.72748
  20166105.430 7                     70160.673 7     53157.34248  20166100.11748
  21839999.328 5                    591658.018 5    445760.51347  21839993.49247
  19961101.938 7                   -238642.767 7   -180834.382 9  19961109.004 9
  21724686.320 5                    465529.147 5    353283.807 7  21724692.750 7
  20575882.195 6                   -829072.760 6   -627721.630 8  20575890.348 8
  23042703.273 4                  -1348735.00014  -1028136.66318  23042713.227 8
 11  2 28 13 34 15.0000000  0 11G02G04G07G08G10G13G23R02R11R12R17   
  22434850.453 6                  -1066162.16516   -787607.09858  22434843.61748
  20572502.164 7                   -254795.009 7   -191638.79048  20572497.81648
  22215060.773 6  22215056.660 8  -1085024.087 6   -825047.513 8  22215056.21548
  24534915.547 5                  -1301188.293 5   -970067.95346  24534914.06346
  21503132.813 6                   -813569.970 6   -614058.47148  21503127.84048
  20166364.750 7                     71523.831 7     54219.55048  20166359.46548
  21841827.117 5                    601263.188 5    453245.07847  21841821.21547
  19960378.313 7                   -242505.942 7   -183839.063 9  19960384.387 9
  21726247.367 5                    473871.267 5    359772.148 8  21726253.773 8
  20573353.000 6                   -842587.276 6   -638232.907 8  20573361.559 8
  22018522.813 6                     16401.63516                  22018529.207 8
 11  2 28 13 34 20.0000000  0 14G02G04G07G08G10G13G20G23R02R11R12R13
                                R17R18
  22431670.266 6                  -1082873.813 6   -800629.13448  22431663.91848
  20571786.500 7                   -258558.187 7   -194571.14549  20571782.05949
  22211687.664 6  22211683.539 8  -1102749.657 6   -838859.654 8  22211683.55148
  24530895.633 5                  -1322316.182 5   -986531.21847  24530893.50447
  21500687.359 6                   -826419.275 6   -624070.92348  21500682.56648
  20166624.727 7                     72891.332 7     55285.12548  20166619.73448
  23168441.344 5                     11405.84515                
  21843654.563 6                    610863.327 6    460725.69347  21843648.18847
  19959653.602 7                   -246371.976 7   -186845.992 9  19959660.410 9
  21727809.656 5                    482221.244 5    366266.552 8  21727816.699 8
  20570824.930 6                   -856088.085 6   -648733.531 8  20570833.168 8
  23033209.906 3                  -1399430.90913  -1067566.57017  23033217.641 7
  22020997.031 6                     29646.713 6     12772.43618  22021003.430 8
  21902921.781 7                     -5715.22617     -2067.84619  21902928.598 9
 11  2 28 13 34 25.0000000  0 13G02G04G07G08G10G13G20G23R01R02R11R12
                                R13
  22428489.695 3                                                  22428482.89148
  20571072.336 7                   -262311.230 7   -197495.59448  20571067.87948
  22208317.633 6  22208313.254 8  -1120459.480 6   -852659.500 8  22208313.02348
  24526876.969 5                  -1343432.639 5  -1002985.59247  24526875.25847
  21498241.383 4                   -839273.782 4   -634087.41548  21498237.08648
  20166885.570 7                     74261.114 7     56352.49648  20166880.13748
  23170443.922 5                                                  23170438.88746
  21845479.594 6                    620453.832 6    468198.82547  21845472.52747
  22025356.227 4                     15575.85614                
  19958927.758 8                   -250246.195 8   -189859.268 9  19958933.672 9
  21729374.125 5                    490572.984 5    372762.346 8  21729379.508 8
  20568300.391 6                   -869571.094 6   -659220.327 8  20568309.086 8
  23028464.008 4                  -1424764.827 4  -1087270.655 8  23028472.871 8
 11  2 28 13 34 30.0000000  0 15G02G04G07G08G10G13G20G23R01R02R11R12
                                R13R17R18
  22425304.891 6                                                  22425298.81348
  20570358.539 7                   -266059.479 7   -200416.30449  20570354.15249
  22204952.078 6  22204948.055 8  -1138144.558 6   -866440.074 8  22204947.79748
  24522862.281 4                  -1364530.211 4  -1019425.23746  24522860.20746
  21495791.570 6                   -852146.438 6   -644117.92448  21495787.01248
  20167146.625 7                     75632.270 7     57420.93048  20167141.05148
  23172448.039 5                                                  23172443.75046
  21847303.195 6                    630037.724 6    475666.79747  21847296.95347
  22026974.484 5                     24230.235 5     11038.05117  22026981.285 7
  19958199.398 7                   -254132.803 7   -192882.170 9  19958206.340 9
  21730936.070 6                    498928.436 6    379261.023 8  21730943.332 8
  20565781.078 7                   -883025.973 7   -669685.207 8  20565790.316 8
  23023725.484 5                  -1450075.366 5  -1106956.615 7  23023733.824 7
  22025955.195 6                     56179.30016     33409.75618  22025961.355 8
  21901738.164 6                    -12035.20616                  21901745.723 8
 11  2 28 13 34 35.0000000  0 15G02G04G07G08G10G13G20G23R01R02R11R12
                                R13R17R18
  22422093.500 6                  -1133199.94916   -839323.46958  22422086.87948
  20569638.617 7                   -269845.020 7   -203366.03648  20569633.71548
  22201611.859 5  22201607.379 8  -1155697.554 5   -880117.690 8  22201607.59047
  24518870.461 3                  -1385503.228 3  -1035767.69146  24518869.22346
  21493318.898 6                   -865140.33216   -654242.88658  21493314.39848
  20167404.664 7                     76990.007 7     58478.95649  20167399.53149
  23174476.242 5                     43125.12115     21435.76257  23174471.71547
  21849127.109 7                    639621.186 7    483134.49748  21849120.19548
  22028606.656 6                     32956.338 6     17825.049 8  22028614.113 8
  19957458.891 8                   -258083.808 8   -195955.127 9  19957465.273 9
  21732499.094 6                    507278.461 6    385755.533 8  21732505.754 8
  20563287.070 7                   -896354.236 7   -680051.540 9  20563295.219 9
  23019013.586 3                  -1475236.045 3  -1126525.873 7  23019021.625 7
  22028429.414 4                     69423.777 4     43711.027 8  22028435.789 8
  21901120.141 6                    -15332.354 6     -9547.78818  21901127.918 8
 11  2 28 13 34 40.0000000  0 14G02G04G07G08G10G13G20G23R01R02R12R13
                                R17R18
  22418852.820 6                  -1150229.619 6   -852593.34747  22418846.82047
  20568911.398 6                   -273663.825 6   -206341.74048  20568907.07048
  22198301.180 5  22198296.824 8  -1173096.738 5   -893675.497 8  22198296.62547
  24514910.172 1                  -1406318.315 1  -1051987.34946  24514908.22746
  21490821.445 6                   -878263.866 6   -664469.01748  21490816.89148
  20167658.633 7                     78323.898 7     59518.36449  20167653.05549
  23176525.414 5                     53892.873 5     29826.23347  23176521.03147
  21850945.719 6                    649178.536 6    490581.76148  21850939.05548
  22030249.445 5                     41735.070 5     24652.964 8  22030255.895 8
  19956702.391 8                   -262119.668 8   -199094.120 9  19956709.000 9
  20560815.133 7                   -909554.758 7   -690318.635 9  20560823.781 9
  23014336.586 4                  -1500216.91114  -1145955.51617  23014344.840 7
  22030906.188 4                     82670.343 4     54013.878 7  22030910.488 7
  21900475.328 5                    -18770.918 5    -12222.281 8  21900483.254 8
 11  2 28 13 34 45.0000000  0 13G02G04G07G08G10G13G20G23R01R02R12R17
                                R18
  22415598.531 6                  -1167330.828 6   -865918.95448  22415592.56648
  20568180.813 6                   -277505.533 6   -209335.27248  20568175.98848
  22195000.547 5  22194996.008 8  -1190441.010 5   -907190.523 8  22194996.06347
  24510957.594 3                                                  24510954.94946
  21488311.461 6                   -891453.077 6   -674746.31948  21488307.12948
  20167913.664 6                     79661.523 6     60560.66548  20167907.66848
  23178589.563 4                     64738.012 4     38276.98547  23178584.94147
  21852769.031 6                    658761.332 6    498048.88548  21852762.32848
  22031903.297 6                     50575.652 6     31528.975 8  22031909.965 8
  19955943.234 8                   -266172.714 8   -202246.479 9  19955950.113 9
  20558358.875 7                   -922678.244 7   -700525.778 8  20558366.859 8
  22033374.883 2                                     64286.25817  22033380.113 7
  21899818.281 5                    -22276.355 5    -14948.711 8  21899826.734 8
 11  2 28 13 34 50.0000000  0 15G02G04G07G08G10G13G20G23R01R02R11R12
                                R13R17R18
  22412348.000 6                  -1184412.354 6   -879229.23748  22412341.42648
  20567453.719 6                   -281328.351 6   -212314.09448  20567448.83648
  22191698.563 5  22191694.832 8  -1207788.850 5   -920708.314 8  22191694.98047
  24506998.953 2                  -1447884.40312                
  21485804.586 6                   -904628.251 6   -685012.69148  21485799.71548
  20168168.992 7                     81005.878 7     61608.21149  20168163.87949
  23180649.523 5                     75566.059 5     46714.42247  23180645.55147
  21854591.453 7                    668336.898 7    505510.34848  21854584.62548
  22033554.492 6                     59400.737 6     38392.913 8  22033561.074 8
  19955184.625 8                   -270221.540 8   -205395.575 9  19955191.586 9
  21737179.094 6                    532291.47316    405210.55518  21737186.375 8
  20555902.711 7                   -935800.179 7   -710731.728 8  20555911.191 8
  23004997.438 2                  -1550080.37312  -1184738.30117  23005006.133 7
  22035845.313 4                                     74574.09817  22035851.574 7
  21899168.578 5                    -25748.529 5    -17649.306 8  21899175.988 8
 11  2 28 13 34 55.0000000  0 15G02G04G07G08G10G13G20G23R01R02R11R12
                                R13R17R18
  22409105.625 6                  -1201453.196 6   -892507.80748  22409099.39148
  20566730.648 6                   -285123.512 6   -215271.36248  20566726.42648
  22188394.383 5  22188390.035 8  -1225156.053 5   -934241.200 8  22188389.73047
  24503040.016 3                  -1468693.474 3                
  21483303.461 6                   -917771.159 6   -695253.92248  21483299.14148
  20168425.992 7                     82356.594 7     62660.71949  20168420.97349
  23182702.406 5                     86353.080 5     55119.86947  23182698.61347
  21856410.719 6                    677896.669 6    512959.52448  21856404.28148
  22035198.164 6                     68190.943 6     45229.733 8  22035205.141 8
  19954427.484 8                   -274261.845 8   -208538.026 9  19954434.105 9
  21738742.125 6                    540643.526 6    411706.571 8  21738749.695 8
  20553442.688 7                   -948940.165 7   -720951.712 8  20553450.797 8
  23000323.195 3                  -1575043.478 3  -1204154.044 7  23000331.273 7
  22038322.352 4                    122364.35514     84887.010 7  22038329.262 7
  21898527.945 5                    -29164.823 5    -20306.423 8  21898536.441 8
 11  2 28 13 35  0.0000000  0 15G02G04G07G08G10G13G20G23R01R02R11R12
                                R13R17R18
  22405870.164 6                  -1218454.875 6   -905755.86848  22405863.77348
  20566013.898 6                   -288891.762 6   -218207.65648  20566009.42648
  22185086.289 5  22185082.371 8  -1242541.296 5   -947788.147 8  22185082.04747
  24499076.125 3                  -1489522.661 3  -1086345.50756  24499073.62546
  21480808.656 6                   -930883.298 6   -705471.16948  21480803.75048
  20168684.211 7                     83713.876 7     63718.34049  20168679.29749
  23184747.398 5                     97101.128 5     63494.98247  23184743.07047
  21858226.969 7                    687441.592 7    520397.11548  21858220.26648
  22036837.328 6                     76948.010 6     52040.770 8  22036843.125 8
  19953671.305 8                   -278293.803 8   -211674.001 9  19953677.684 9
  21740305.422 6                    548996.014 6    418202.949 8  21740313.039 8
  20550979.992 7                   -962096.439 7   -731184.378 8  20550988.098 8
  22995643.445 4                  -1600032.417 4  -1223589.886 8  22995651.555 8
  22040806.586 4                    135654.580 4     95223.830 7  22040812.719 7
  21897899.125 5                    -32526.836 5    -22921.331 8  21897905.723 8
 11  2 28 13 35  5.0000000  0 13G02G04G07G08G10G13G20G23R01R02R11R12
                                R18
  22402645.008 6                  -1235403.736 6   -918962.77448  22402638.66448
  20565303.430 7                   -292626.006 7   -221117.47148  20565298.88348
  22181773.156 5  22181768.863 8  -1259951.497 5   -961354.532 8  22181768.98447
  24495107.648 4                                                  24495105.20346
  21478321.484 6                   -943952.517 6   -715654.97148  21478316.59048
  20168944.047 7                     85078.427 7     64781.62748  20168938.76248
  23186783.133 5                    107796.457 5     71828.98647  23186779.07847
  21860039.258 7                    696966.345 7    527818.99148  21860032.72348
  22038465.906 6                     85660.373 6     58817.041 8  22038473.023 8
  19952918.039 8                   -282314.512 8   -214801.214 9  19952924.328 9
  21741868.148 7                    557344.310 7    424696.077 8  21741874.234 8
  20548511.953 7                   -975279.158 7   -741437.595 8  20548520.055 8
  21897281.367 5                    -35818.627 5    -25481.607 8  21897289.695 8
 11  2 28 13 35 10.0000000  0 14G02G04G07G08G10G13G20G23R01R02R11R12
                                R13R18
  22399434.781 6                  -1252271.565 6   -932106.54448  22399428.10248
  20564601.281 7                   -296313.944 7   -223991.18048  20564596.89548
  22178452.547 5  22178447.473 8  -1277406.700 5   -974955.976 8  22178447.18447
  24491132.727 2                                                  24491129.93446
  21475847.031 6                   -956954.360 6   -725786.27648  21475842.73448
  20169204.586 7                     86448.447 7     65849.17849  20169199.32449
  23188801.070 5                    118404.586 5     80095.04547  23188797.54347
  21861845.242 7                    706456.054 7    535213.57748  21861838.62948
  22040083.445 6                     94298.159 6     65535.327 8  22040089.094 8
  19952167.320 8                   -286320.553 8   -217917.024 9  19952174.254 9
  21743428.188 5                    565674.61515    431174.91618  21743433.949 8
  20546034.523 7                   -988515.744 7   -751732.713 8  20546042.820 8
  22986263.031 2                                  -1262554.49317  22986270.441 7
  21896684.063 6                    -39009.674 6    -27963.540 8  21896691.699 8
 11  2 28 13 35 15.0000000  0 14G02G04G07G08G10G13G20G23R01R02R11R12
                                R17R18
  22396236.930 7                  -1269081.646 7   -945205.27948  22396229.51648
  20563906.242 7                   -299965.822 7   -226836.79248  20563901.53148
  22175124.211 6  22175120.789 8  -1294890.505 6   -988579.751 8  22175120.55547
  24487151.063 4                  -1552188.08914  -1135175.85156  24487149.21146
  21473382.516 7                   -969909.137 7   -735880.89648  21473377.04348
  20169467.117 7                     87825.518 7     66922.22849  20169461.30949
  23190808.391 5                    128954.252 5     88315.55747  23190805.19147
  21863646.953 7                    715923.073 7    542590.47848  21863640.07448
  22041689.719 7                    102886.235 7     72214.920 8  22041695.840 8
  19951418.328 9                   -290314.863 9   -221023.705 9  19951425.695 9
  21744984.766 7                    573999.978 7    437650.233 8  21744991.324 8
  20543550.328 8                  -1001783.049 8   -762051.725 9  20543558.469 9
  22048314.898 6                    175817.21016    126460.45517  22048318.582 7
  21896100.820 6                    -42125.351 6    -30386.840 8  21896108.164 8
 11  2 28 13 35 20.0000000  0 15G02G04G07G08G10G13G20G23R01R02R11R12
                                R13R17R18
  22393045.195 6                  -1285853.896 6   -958274.57547  22393038.53947
  20563216.359 7                   -303591.454 7   -229661.94748  20563212.03148
  22171795.336 6  22171790.258 9  -1312391.045 6  -1002216.500 9  22171790.30147
  24483166.945 4                  -1573126.360 4  -1151491.42346  24483165.43046
  21470922.625 7                   -982834.424 7   -745952.54748  21470918.01648
  20169730.156 7                     89209.353 7     68000.53049  20169724.89149
  23192809.672 6                    139466.982 6     96507.35447  23192805.33247
  21865444.570 7                    725376.338 7    549956.64948  21865438.66848
  22043289.461 6                    111442.970 6     78870.170 8  22043297.551 8
  19950671.063 8                   -294301.199 8   -224124.180 9  19950678.781 9
  21746543.438 7                    582327.421 7    444127.119 8  21746549.551 8
  20541064.391 8                  -1015064.594 8   -772381.768 9  20541073.336 9
  22976851.469 5                  -1700384.01815  -1301641.29818  22976859.945 8
  22050830.461 6                    189284.458 6    136934.918 7  22050837.555 7
  21895526.820 7                    -45187.699 7    -32768.664 8  21895533.773 8
 11  2 28 13 35 25.0000000  0 15G02G04G07G08G10G13G20G23R01R02R11R12
                                R13R17R18
  22389854.102 6                  -1302624.143 6   -971342.29148  22389846.82448
  20562527.742 7                   -307207.401 7   -232479.60148  20562524.07848
  22168465.086 6  22168461.000 9  -1329884.758 6  -1015847.959 9  22168461.27347
  24479185.047 5                                                  24479180.19946
  21468462.930 7                   -995761.580 7   -756025.67848  21468457.84048
  20169994.930 7                     90600.480 7     69084.52449  20169990.00449
  23194810.430 6                    149983.426 6    104701.96147  23194807.11747
  21867244.852 7                    734832.106 7    557324.77548  21867237.33248
  22044891.031 7                    120002.677 7     85527.697 8  22044897.625 8
  19949925.188 9                   -298285.645 9   -227223.206 9  19949931.715 9
  21748104.938 7                    590670.931 7    450616.502 8  21748110.992 8
  20538581.016 8                  -1028328.218 8   -782697.957 9  20538589.852 9
  22972145.852 5                  -1725521.302 5  -1321192.476 8  22972152.738 8
  22053347.945 6                    202756.357 6    147413.109 7  22053354.328 7
  21894955.328 6                    -48236.830 6    -35140.233 8  21894961.715 8
 11  2 28 13 35 30.0000000  0 14G02G04G07G08G10G13G20G23R01R02R11R12
                                R17R18
  22386647.320 6                  -1319473.228 6   -984471.46048  22386640.86348
  20561834.875 7                   -310851.894 7   -235319.46648  20561830.29748
  22165147.664 6  22165142.402 8  -1347321.712 6  -1029435.193 8  22165142.26647
  24475202.820 3                                                  24475201.30946
  21465988.461 6                  -1008761.586 6   -766155.54148  21465984.13748
  20170261.016 7                     91999.067 7     70174.33049  20170255.61349
  23196829.508 5                    160593.214 5    112969.24547  23196825.47747
  21869051.922 7                    744326.651 7    564723.12448  21869045.14548
  22046506.695 6                    128641.531 6     92246.799 8  22046513.246 8
  19949176.328 8                   -302282.433 8   -230331.817 9  19949182.742 9
  21749675.516 6                    599062.067 6    457142.964 8  21749682.043 8
  20536114.703 7                  -1041504.345 7   -792946.054 9  20536122.934 9
  22055854.547 3                    216174.470 3    157849.363 7  22055859.656 7
  21894370.117 5                    -51363.041 5    -37571.718 8  21894377.945 8
 11  2 28 13 35 35.0000000  0 13G02G04G07G08G10G13G20G23R01R02R11R12
                                R18
  22383429.313 6                  -1336382.118 6   -997647.22548  22383423.16448
  20561138.047 7                   -314515.229 7   -238174.00848  20561133.47748
  22161838.141 5  22161834.172 8  -1364711.389 5  -1042985.601 8  22161833.96547
  24471228.602 2                                                  24471227.62946
  21463504.281 6                  -1021817.463 6   -776328.95248  21463499.62548
  20170528.969 7                     93406.887 7     71271.33449  20170523.47349
  23198863.586 5                    171279.072 5    121295.91347  23198859.37947
  21870864.445 7                    753854.231 7    572147.20348  21870857.99648
  22048135.070 6                    137345.271 6     99016.360 8  22048142.141 8
  19948425.734 8                   -306286.632 8   -233446.200 9  19948432.113 9
  21751254.883 5                    607495.647 5    463702.374 8  21751259.859 8
  20533662.047 7                  -1054606.413 7   -803136.548 9  20533671.000 9
  21893773.758 5                    -54545.256 5    -40046.808 8  21893781.957 8
 11  2 28 13 35 40.0000000  0 14G02G04G07G08G10G13G20G23R01R02R12R13
                                R17R18
  22380208.391 6                  -1353307.313 6  -1010835.67248  22380202.01248
  20560441.688 6                   -318176.265 6   -241026.77448  20560436.85248
  22158532.344 5  22158529.816 8  -1382079.928 5  -1056519.533 8  22158529.37147
  24467255.773 2                  -1656736.78012  -1216642.26555  24467255.26245
  21461016.375 6                  -1034890.903 6   -786516.05448  21461011.37948
  20170798.055 7                     94823.266 7     72375.00548  20170793.14848
  23200902.438 5                    181991.563 5    129643.26947  23200897.95347
  21872679.766 6                    763393.883 6    579580.71648  21872673.55148
  22049767.719 6                    146071.383 6    105803.333 8  22049773.598 8
  19947675.078 8                   -310291.202 8   -236560.859 9  19947681.867 9
  20531215.961 7                  -1067672.326 7   -813298.925 8  20531224.730 8
  22958073.516 5                  -1800664.64215  -1379636.63117  22958079.844 7
  22060851.523 3                    242922.96813    178653.71017  22060859.105 7
  21893175.898 5                    -57734.709 5    -42527.470 8  21893183.820 8
 11  2 28 13 35 45.0000000  0 14G02G04G07G08G10G13G20G23R01R02R12R13
                                R17R18
  22376991.398 6                  -1370212.650 6  -1024008.67048  22376985.02048
  20559748.180 6                   -321818.757 6   -243865.07948  20559743.79348
  22155226.617 5  22155223.414 8  -1399451.874 5  -1070056.117 8  22155223.05547
  24463282.406 3                                                  24463280.67245
  21458531.352 6                  -1047950.451 6   -796692.31548  21458526.56648
  20171069.500 7                     96247.355 7     73484.68348  20171064.26248
  23202937.281 5                    192689.303 5    137979.19347  23202933.06347
  21874494.125 6                    772928.882 6    587010.55948  21874488.59048
  22051397.352 5                    154785.061 5    112580.620 8  22051404.766 8
  19946926.016 8                   -314290.138 8   -239671.149 9  19946932.684 9
  20528770.594 7                  -1080734.942 7   -823458.736 8  20528779.289 8
  22953387.016 3                  -1825695.839 3  -1399105.385 7  22953392.020 7
  22063354.484 4                    256311.273 4    189066.851 7  22063360.020 7
  21892584.805 5                    -60891.409 5    -44982.713 8  21892591.809 8
 11  2 28 13 35 50.0000000  0 14G02G04G07G08G10G13G20G23R01R02R11R12
                                R13R18
  22373775.000 6                  -1387115.535 6  -1037179.74448  22373768.61348
  20559057.219 6                   -325450.603 6   -246695.08548  20559051.84448
  22151922.109 4  22151918.707 8  -1416815.269 4  -1083586.015 8  22151918.52047
  24459306.688 1                                                  24459305.83245
  21456045.734 6                  -1061011.365 6   -806869.65948  21456041.16048
  20171342.133 7                     97680.000 7     74601.02748  20171336.40648
  23204974.125 4                    203393.005 4    146319.72047  23204970.40647
  21876309.656 6                    782468.132 6    594443.75248  21876302.81348
  22053029.516 5                    163503.894 5    119361.930 8  22053035.500 8
  19946177.063 8                   -318285.902 8   -242778.970 9  19946183.797 9
  21756007.156 4                    632899.13714    482410.32317  21756015.219 7
  20526328.813 7                  -1093777.703 7   -833603.103 8  20526337.844 8
  22948697.672 1                  -1850726.189 1  -1418573.383 7  22948704.797 7
  21891995.891 5                    -64034.612 5    -47427.387 8  21892003.223 8
 11  2 28 13 35 55.0000000  0 11G02G04G07G10G13G20G23R01R02R12R18   
  22370557.914 6                  -1404020.825 6  -1050352.68848  22370551.46148
  20558367.773 6                   -329074.752 6   -249519.10848  20558363.14148
  22148620.031 5  22148616.836 8  -1434169.62015  -1097108.87618  22148616.32847
  21453559.570 6                  -1074077.883 6   -817051.35648  21453554.68848
  20171616.047 7                     99119.459 7     75722.69048  20171610.33248
  23207012.594 5                    214104.539 5    154666.37947  23207008.54347
  21878125.391 6                    792011.010 6    601879.74348  21878119.33248
  22054660.867 5                    172228.970 5    126148.091 8  22054667.516 8
  19945428.070 8                   -322280.951 8   -245886.222 9  19945434.578 9
  20523891.391 7                  -1106799.743 7   -843731.345 8  20523899.473 8
  21891408.688 5                    -67169.864 5    -49865.936 8  21891416.422 8
 11  2 28 13 36  0.0000000  0 13G02G04G07G10G13G20G23R01R02R12R13R17
                                R18
  22367339.102 6                  -1420934.018 6  -1063531.80747  22367332.94147
  20557678.477 6                   -332694.805 6   -252339.92048  20557673.87548
  22145319.898 5  22145315.906 8  -1451513.112 5  -1110623.309 8  22145316.20347
  21451070.742 6                  -1087155.136 6   -827241.42148  21451066.09048
  20171891.266 7                    100565.834 7     76849.72848  20171885.59848
  23209053.781 5                    224830.288 5    163024.10447  23209049.42647
  21879942.391 6                                                
  22056296.578 5                    180966.647 5    132944.052 7  22056302.371 7
  19944679.852 8                   -326275.334 8   -248992.971 9  19944686.742 9
  20521458.180 7                  -1119796.667 7   -853840.066 8  20521466.699 8
  22939326.422 4                  -1900769.34814  -1457496.03417  22939333.680 7
  22070864.742 3                    296489.88113    220316.82417  22070868.992 7
  21890822.063 5                    -70303.400 5    -52303.143 8  21890829.551 8
 11  2 28 13 36  5.0000000  0 10G02G04G07G10G13G20G23R02R12R18      
  22364119.977 6                  -1437852.074 6  -1076714.70348  22364113.71548
  20556990.805 6                   -336308.231 6   -255155.59848  20556986.50848
  22142022.484 5  22142017.992 8  -1468845.742 5  -1124129.236 8  22142017.79747
  21448580.750 6                  -1100240.307 6   -837437.66448  21448576.27048
  20172167.586 6                    102018.861 6     77981.96348  20172162.16048
  23211096.719 5                    235566.319 5    171389.79147  23211091.92647
  21881760.711 6                                                  21881753.32848
  19943931.453 8                   -330269.588 8   -252099.608 9  19943938.227 9
  20519029.008 7                  -1132770.690 7   -863930.983 8  20519037.563 8
  21890235.711 5                    -73431.287 5    -54735.924 8  21890243.762 8
 11  2 28 13 36 10.0000000  0 13G02G04G07G10G13G20G23R01R02R11R12R17
                                R18
  22360904.633 6                  -1454749.234 6  -1089881.32447  22360898.82047
  20556306.609 6                   -339901.811 6   -257955.77148  20556302.46948
  22138723.586 5  22138718.980 8  -1486179.657 5  -1137636.194 8  22138718.77347
  21446093.977 6                  -1113310.458 6   -847622.19548  21446088.93848
  20172446.000 7                    103481.071 7     79121.34148  20172440.54748
  23213137.266 5                    246289.595 5    179745.60147  23213133.38747
  21883578.797 6                    820657.70216    622419.63158  21883572.57048
  22059565.805 6                    198435.97416    146531.75318  22059572.254 8
  19943183.891 8                   -334256.933 8   -255200.880 9  19943190.570 9
  21762391.242 4                     12979.90314                
  20516601.898 7                  -1145739.273 7   -874017.646 8  20516609.953 8
  22075872.086 3                    323288.45413    241160.92317  22075877.199 7
  21889656.141 5                    -76525.391 5    -57142.474 8  21889663.906 8
 11  2 28 13 36 15.0000000  0 11G02G04G07G10G13G20G23R01R02R12R18   
  22357689.945 6                  -1471641.838 6  -1103044.40048  22357683.67248
  20555625.664 7                   -343483.946 7   -260747.05648  20555620.43848
  22135425.742 6  22135421.449 8  -1503507.180 6  -1151138.155 8  22135421.50047
  21443606.117 6                  -1126380.056 6   -857806.30048  21443601.79348
  20172726.039 7                    104951.668 7     80267.25748  20172720.65648
  23215178.641 5                    257015.794 5    188103.67647  23215173.91447
  21885397.281 7                    830212.203 7    629864.68848  21885390.78148
  22061200.109 6                    207173.963 6    153327.799 8  22061207.273 8
  19942437.516 8                   -338240.690 8   -258299.352 9  19942444.566 9
  20514177.258 7                  -1158690.551 7   -884090.860 8  20514185.734 8
  21889079.188 5                    -79603.818 5    -59536.800 8  21889087.215 8
 11  2 28 13 36 20.0000000  0 11G02G04G07G10G13G20G23R01R02R12R18   
  22354484.203 6                  -1488492.363 6  -1116174.66947  22354477.32447
  20554949.422 7                   -347037.357 7   -263515.94948  20554944.41448
  22132125.398 5  22132121.609 8  -1520852.341 5  -1164653.865 8  22132121.68047
  21441126.148 6                  -1139416.451 6   -867964.52848  21441121.10248
  20173007.258 7                    106429.379 7     81418.71548  20173001.86748
  23217212.258 5                    267701.628 5    196430.29346  23217207.66446
  21887212.359 6                    839751.429 6    637297.82447  21887206.30947
  22062829.617 3                    215877.614 3    160097.346 7  22062835.438 7
  19941692.742 8                   -342215.599 8   -261390.950 9  19941699.227 9
  20511749.211 7                  -1171658.096 7   -894176.735 8  20511758.148 8
  21888513.281 6                    -82624.339 6    -61886.114 8  21888521.035 8
 11  2 28 13 36 25.0000000  0 12G02G04G07G10G13G20G23R01R02R12R17R18
  22351291.461 6                  -1505266.688 6  -1129245.56248  22351285.39548
  20554281.391 7                   -350546.578 7   -266250.41448  20554277.04348
  22128817.289 5  22128812.824 8  -1538236.967 5  -1178200.328 8  22128812.98847
  21438656.813 6                  -1152390.097 6   -878073.84448  21438652.28548
  20173289.516 7                    107913.700 7     82575.33048  20173283.85248
  23219230.281 6                    278308.469 6    204695.36347  23219226.32847
  21889021.633 6                    849259.529 6    644706.74347  21889014.98447
  22064444.688 5                    224513.537 5    166814.147 7  22064451.109 7
  19940950.250 8                   -346176.306 8   -264471.491 9  19940956.957 9
  20509313.039 7                  -1184671.687 7   -904298.420 8  20509322.090 8
  22083417.852 5                    363659.44515    272559.76917  22083420.578 7
  21887965.750 6                    -85549.240 6    -64161.012 8  21887973.480 8
 11  2 28 13 36 30.0000000  0 12G02G04G07G10G13G20G23R01R02R12R17R18
  22348105.688 6                  -1522008.048 6  -1142290.77548  22348099.72748
  20553618.406 7                   -354031.408 7   -268965.85848  20553613.47748
  22125507.766 6  22125501.930 8  -1555633.270 6  -1191755.896 8  22125502.31347
  21436192.930 6                  -1165338.644 6   -888163.63648  21436188.65248
  20173573.414 7                    109405.994 7     83738.16848  20173568.32048
  23221243.797 5                    288886.688 5    212938.11447  23221239.78947
  21890829.555 6                    858758.016 6    651516.12357  21890818.11747
  22066055.141 5                    233125.542 5    173512.387 7  22066060.969 7
  19940209.938 9                   -350128.902 9   -267545.747 9  19940216.340 9
  20506875.680 7                  -1197692.343 7   -914425.569 9  20506883.984 9
  22085944.688 5                    377191.033 5    283084.319 7  22085950.688 7
  21887426.398 6                    -88426.716 6    -66399.067 8  21887434.332 8
 11  2 28 13 36 35.0000000  0 11G02G04G07G10G13G20G23R01R02R12R18   
  22344923.523 6                  -1538729.933 6  -1155320.79848  22344917.15648
  20552958.633 7                   -357497.598 7   -271666.78948  20552954.20748
  22122195.055 6  22122192.016 8  -1573030.978 6  -1205312.546 8  22122191.89547
  21433732.000 6                  -1178273.711 6   -898242.90848  21433727.12148
  20173858.813 7                    110906.557 7     84907.43449  20173853.75449
  23223254.031 6                    299451.771 6    221170.63747  23223249.64147
  21892635.711 6                    868252.685 6    658914.61647  21892628.70747
  22067663.367 5                    241726.113 5    180201.678 7  22067670.688 7
  19939470.016 9                   -354075.845 9   -270615.586 9  19939476.488 9
  20504439.023 8                  -1210707.523 8   -924548.494 9  20504447.453 9
  21886893.570 6                    -91271.503 6    -68611.687 8  21886901.785 8
 11  2 28 13 36 40.0000000  0 12G02G04G07G10G13G20G23R01R02R12R17R18
  22341748.273 7                  -1555416.596 7  -1168323.40548  22341742.05948
  20552303.711 7                   -360938.453 7   -274347.97648  20552299.43448
  22118882.664 6  22118878.785 9  -1590441.753 6  -1218879.373 9  22118878.74647
  21431275.484 7                  -1191181.822 7   -908301.18348  21431270.83248
  20174145.961 7                    112414.419 7     86082.37649  20174140.59049
  23225258.492 6                    309984.616 6    229378.06947  23225254.11347
  21894440.180 7                    877735.179 7    666303.49648  21894434.04348
  22069267.227 4                    250299.226 4    186869.621 6  22069274.418 6
  19938731.398 9                   -358015.068 9   -273679.412 9  19938738.172 9
  20502001.078 8                  -1223732.324 8   -934678.878 8  20502008.141 8
  22091013.109 5                    404317.47015    304182.65018  22091020.188 8
  21886370.516 6                    -94066.472 6    -70785.559 8  21886378.785 8
 11  2 28 13 36 45.0000000  0 12G02G04G07G10G13G20G23R01R02R12R17R18
  22338576.430 7                  -1572085.134 7  -1181311.85448  22338569.85948
  20551652.461 7                   -364361.519 7   -277015.29048  20551647.43848
  22115569.766 6  22115565.609 9  -1607853.526 6  -1232447.018 9  22115565.06647
  21428821.133 7                  -1204077.746 7   -918349.93948  21428816.94148
  20174434.531 7                    113930.645 7     87263.84849  20174429.49649
  23227260.961 6                    320506.199 6    237576.67047  23227256.23847
  21896244.258 7                    887215.012 7    673690.38848  21896238.39548
  22070869.617 5                    258862.799 5    193530.184 6  22070876.359 6
  19937994.016 9                   -361948.838 9   -276739.020 9  19938000.844 9
  20499563.500 8                  -1236750.319 8   -944803.970 9  20499571.422 9
  22093553.008 5                    417910.463 5    314754.979 8  22093560.172 8
  21885852.141 6                    -96830.384 6    -72935.271 8  21885861.500 8
 11  2 28 13 36 50.0000000  0 12G02G04G07G10G13G20G23R01R02R12R17R18
  22335406.148 7                  -1588746.013 7  -1194294.39348  22335400.03148
  20551003.938 7                   -367771.203 7   -279672.19648  20550998.91448
  22112257.594 6  22112253.926 9  -1625258.516 6  -1246009.293 9  22112253.31647
  21426367.477 6                  -1216970.473 6   -928396.21448  21426363.44948
  20174724.789 7                    115455.996 7     88452.44849  20174719.38349
  23229262.844 6                    331029.590 6    245776.67847  23229258.95347
  21898049.211 7                    896697.668 7    681079.46448  21898042.57848
  22072471.703 5                    267428.106 5    200192.100 6  22072478.254 6
  19937258.211 9                   -365878.019 9   -279795.046 9  19937265.207 9
  20497130.258 8                  -1249751.208 8   -954915.799 9  20497138.746 9
  22096095.859 6                    431512.133 6    325334.047 8  22096102.430 8
  21885339.047 7                    -99575.290 7    -75070.195 8  21885346.746 8
 11  2 28 13 36 55.0000000  0 11G02G04G07G10G13G20G23R02R12R17R18   
  22332231.570 7                  -1605426.306 7  -1207291.97948  22332225.18048
  20550354.492 7                   -371180.360 7   -282328.69448  20550350.12148
  22108949.484 6  22108945.555 9  -1642640.597 6  -1259553.776 9  22108944.77747
  21423910.813 7                  -1229883.639 7   -938458.43548  21423905.82048
  20175016.703 7                    116989.946 7     89647.72649  20175011.68449
  23231271.820 6                    341583.549 6    254000.56847  23231267.32047
  21899855.695 7                    906194.212 7    688479.41347  21899849.91047
  19936522.156 9                   -369807.840 9   -282851.583 9  19936528.586 9
  20494704.063 8                  -1262713.034 8   -964997.203 9  20494712.051 9
  22098633.977 6                    445103.190 6    335904.825 8  22098640.801 8
  21884821.930 6                   -102331.455 6    -77213.870 8  21884829.527 8
 11  2 28 13 37  0.0000000  0 12G02G04G07G10G13G20G23R01R02R12R17R18
  22329049.922 6                  -1622145.531 6  -1220319.97948  22329043.66448
  20549704.578 7                   -374598.784 7   -284992.40348  20549699.75848
  22105648.281 6  22105644.414 9  -1659989.323 6  -1273072.260 9  22105643.74647
  21421446.320 6                  -1242834.420 6   -948549.95948  21421441.32048
  20175310.305 7                    118532.313 7     90849.56549  20175304.82049
  23233289.570 6                    352189.278 6    262264.75247  23233285.48047
  21901667.320 7                    915713.646 7    695897.15248  21901660.62948
  22075694.570 5                    284655.37315    213591.03917  22075701.582 7
  19935784.797 9                   -373741.356 9   -285910.998 9  19935792.191 9
  20492287.477 8                  -1275619.984 8   -975035.948 9  20492295.492 9
  22101169.625 5                    458668.540 5    346455.670 8  22101176.324 8
  21884298.477 6                   -105120.828 6    -79383.378 8  21884306.793 8
 11  2 28 13 37  5.0000000  0 13G02G04G07G10G13G20G23R01R02R11R12R17
                                R18
  22325866.469 6                  -1638878.915 6  -1233358.97548  22325859.68448
  20549054.063 7                   -378015.019 7   -287654.39848  20549049.60248
  22102350.250 6  22102346.703 9  -1677320.781 6  -1286577.295 9  22102346.34847
  21418978.492 6                  -1255801.229 6   -958653.95848  21418973.84048
  20175604.867 7                    120082.297 7     92057.34549  20175599.91049
  23235312.102 6                    362817.721 6    270546.66047  23235307.84047
  21903480.984 7                    925243.565 7    703323.05648  21903474.75848
  22077313.609 7                    293310.738 7    220323.015 8  22077321.113 8
  19935047.719 9                   -377674.981 9   -288970.482 9  19935054.484 9
  21780086.961 7                     14773.11217      4385.04718  21780093.543 8
  20489877.719 8                  -1288494.464 8   -985049.429 9  20489886.152 9
  22103703.000 5                    472225.977 5    357000.298 8  22103710.113 8
  21883775.266 6                   -107915.791 6    -81557.251 8  21883784.059 8
 11  2 28 13 37 10.0000000  0 13G02G04G07G10G13G20G23R01R02R11R12R17
                                R18
  22322694.359 7                  -1655547.966 7  -1246347.84248  22322687.76648
  20548411.656 7                   -381391.990 7   -290285.81348  20548406.88748
  22099046.219 6  22099042.152 9  -1694682.483 6  -1300105.885 9  22099042.10947
  21416520.805 7                  -1268715.730 7   -968717.20748  21416516.42248
  20175901.391 7                    121639.066 7     93270.40449  20175895.89549
  23237322.414 6                    373380.873 6    278777.67747  23237318.18847
  21905289.469 7                    934747.296 7    710728.60048  21905282.93448
  22078922.859 7                    301909.687 7    227011.090 8  22078929.383 8
  19934312.844 9                   -381597.113 9   -292021.033 9  19934318.645 9
  21781710.445 7                     23449.546 7     11133.377 8  21781717.180 8
  20487460.969 8                  -1301403.423 8   -995089.726 9  20487469.500 9
  22106248.766 6                    485833.336 6    367583.787 8  22106251.680 8
  21883267.609 6                   -110627.616 6    -83666.455 8  21883276.449 8
 11  2 28 13 37 15.0000000  0 13G02G04G07G10G13G20G23R01R02R11R12R17
                                R18
  22319530.164 7                  -1672176.855 7  -1259305.42548  22319523.73048
  20547774.305 7                   -384741.303 7   -292895.67648  20547769.35248
  22095740.094 6  22095736.160 9  -1712059.505 6  -1313646.413 9  22095735.99647
  21414068.727 7                  -1281598.995 7   -978756.11448  21414064.39548
  20176199.086 7                    123203.698 7     94489.61249  20176193.83649
  23239326.008 6                    383907.567 6    286980.31347  23239321.57447
  21907095.898 7                    944238.093 7    718123.97448  21907089.05548
  22080525.469 7                    310477.849 7    233675.251 8  22080532.668 8
  19933579.406 9                   -385510.155 9   -295064.504 9  19933584.988 9
  21783335.664 7                     32129.652 7     17884.539 8  21783341.266 8
  20485042.563 8                  -1314324.836 8  -1005139.708 9  20485050.410 9
  22108796.125 6                    499471.503 6    378191.219 8  22108800.297 8
  21882769.508 6                   -113284.266 6    -85732.739 9  21882779.375 9
 11  2 28 13 37 20.0000000  0 13G02G04G07G10G13G20G23R01R02R11R12R17
                                R18
  22316366.938 7                  -1688798.450 7  -1272257.31548  22316361.10948
  20547139.719 7                   -388077.703 7   -295495.46648  20547134.38748
  22092434.195 6  22092430.586 9  -1729430.114 6  -1327181.952 9  22092430.32047
  21411617.984 7                  -1294479.472 7   -988792.85248  21411613.24648
  20176498.344 7                    124777.083 7     95715.61549  20176493.60249
  23241329.484 6                    394435.810 6    295184.13347  23241325.17647
  21908902.133 7                    953731.337 7    725521.32048  21908895.34848
  22082128.063 7                    319047.335 7    240340.378 8  22082135.402 8
  19932847.117 9                   -389419.162 9   -298104.848 9  19932852.227 9
  21784962.063 7                     40825.856 7     24648.236 8  21784968.691 8
  20482626.188 8                  -1327229.403 8  -1015176.600 9  20482634.586 9
  22111347.148 6                    513117.795 6    388804.982 8  22111349.559 8
  21882275.742 6                   -115922.217 6    -87784.476 9  21882284.488 9
 11  2 28 13 37 25.0000000  0 13G02G04G07G10G13G20G23R01R02R11R12R17
                                R18
  22313205.570 7                  -1705413.146 7  -1285203.83248  22313198.70348
  20546507.023 7                   -391401.549 7   -298085.49548  20546501.93448
  22089129.633 6  22089125.551 9  -1746794.647 6  -1340712.757 9  22089125.49247
  21409167.586 7                  -1307357.624 7   -998827.77848  21409162.97748
  20176799.656 7                    126358.687 7     96948.03349  20176794.22749
  23243333.188 6                    404965.018 6    303388.70147  23243328.98047
  21910709.188 7                    963226.569 7    732920.19848  21910702.20748
  22083731.539 7                    327617.804 7    247006.290 8  22083738.781 8
  19932114.680 9                   -393324.491 9   -301142.335 9  19932120.223 9
  21786592.523 7                     49537.748 7     31424.157 8  21786599.398 8
  20480213.336 8                  -1340117.572 8  -1025200.713 9  20480221.793 9
  22113896.852 6                    526771.703 6    399424.688 8  22113901.879 8
  21881784.805 6                   -118542.036 6    -89822.117 9  21881793.109 9
 11  2 28 13 37 30.0000000  0 13G02G04G07G10G13G20G23R01R02R11R12R17
                                R18
  22310045.531 7                  -1722020.156 7  -1298144.35648  22310039.10548
  20545877.313 7                   -394712.125 7   -300665.16948  20545872.07448
  22085826.828 6  22085822.676 9  -1764152.301 6  -1354238.202 9  22085822.70347
  21406717.102 7                  -1320232.573 7  -1008860.21148  21406712.80548
  20177102.352 7                    127949.355 7     98187.51449  20177096.76649
  23245336.805 6                    415496.121 6    311594.74847  23245332.84847
  21912516.320 7                    972724.641 7    740321.29248  21912509.63748
  22085335.422 7                    336190.129 7    253673.658 8  22085343.152 8
  19931383.680 9                   -397225.310 9   -304176.308 9  19931389.480 9
  21788226.172 7                     58266.271 7     38212.998 8  21788232.512 8
  20477804.133 8                  -1352988.455 8  -1035211.401 9  20477812.875 9
  22116450.289 6                    540434.096 6    410050.993 8  22116454.703 8
  21881297.461 6                   -121142.838 6    -91844.960 9  21881306.125 9
 11  2 28 13 37 35.0000000  0 13G02G04G07G10G13G20G23R01R02R11R12R17
                                R18
  22306886.289 7                  -1738619.812 7  -1311079.14948  22306879.82448
  20545249.805 7                   -398009.648 7   -303234.67248  20545244.35248
  22082524.445 6  22082520.461 9  -1781503.417 6  -1367758.547 9  22082520.48447
  21404268.016 7                  -1333104.705 7  -1018890.43648  21404263.48048
  20177406.477 7                    129548.699 7     99433.75249  20177401.21549
  23247340.883 6                    426028.789 6    319802.03247  23247337.05547
  21914324.242 7                    982225.164 7    747724.29948  21914317.73448
  22086939.539 7                    344763.892 7    260342.131 8  22086946.793 8
  19930653.789 9                   -401122.058 9   -307207.119 9  19930659.777 9
  21789862.461 7                     67010.938 7     45014.386 8  21789869.805 8
  20475397.258 8                  -1365842.418 8  -1045208.916 9  20475406.504 9
  22119006.047 6                    554104.763 6    420683.749 8  22119009.445 8
  21880813.484 6                   -123724.868 6    -93853.210 9  21880822.691 9
 11  2 28 13 37 40.0000000  0 13G02G04G07G10G13G20G23R01R02R11R12R17
                                R18
  22303726.492 7                  -1755223.082 7  -1324016.76348  22303719.87148
  20544623.875 7                   -401299.683 7   -305798.33448  20544619.02348
  22079225.398 6  22079221.801 9  -1798842.184 6  -1381269.262 9  22079221.37148
  21401816.875 6                  -1345983.596 6  -1028925.94448  21401812.68448
  20177712.445 7                    131156.133 7    100686.30149  20177706.93049
  23249346.148 6                    436573.712 6    328018.81646  23249343.67246
  21916133.672 7                    991732.042 7    755132.20148  21916127.06648
  22088545.320 7                    353348.129 7    267018.684 8  22088552.426 8
  19929923.625 9                   -405016.966 9   -310236.487 9  19929929.898 9
  21791502.750 7                     75774.769 7     51830.703 8  21791510.047 8
  20472996.242 8                  -1378671.480 8  -1055187.082 9  20473004.109 9
  22121559.344 6                    567775.394 6    431316.480 8  22121565.766 8
  21880331.203 6                   -126300.490 6    -95856.460 8  21880339.051 8
 11  2 28 13 37 45.0000000  0 13G02G04G07G10G13G20G23R01R02R11R12R17
                                R18
  22300570.336 7                  -1771808.790 7  -1336940.70048  22300563.74648
  20544001.180 7                   -404572.083 7   -308348.25748  20543996.67648
  22075925.898 6  22075922.723 9  -1816180.912 6  -1394779.946 9  22075922.62947
  21399368.906 6                  -1358850.907 6  -1038952.41548  21399364.18448
  20178019.570 7                    132772.046 7    101945.45149  20178014.48049
  23251351.242 6                    447108.644 6    336227.86546  23251347.68046
  21917942.289 7                   1001236.616 7    762538.35348  21917935.52348
  22090149.672 7                    361924.035 7    273688.844 8  22090156.926 8
  19929195.367 9                   -408906.309 9   -313261.540 9  19929201.043 9
  21793144.813 7                     84550.827 7     58656.500 8  21793152.488 8
  20470596.078 8                  -1391492.408 8  -1065158.907 9  20470603.723 9
  22124116.328 6                    581461.065 6    441960.864 8  22124123.703 8
  21879854.414 6                   -128846.321 6    -97836.558 8  21879861.348 8
 11  2 28 13 37 50.0000000  0 13G02G04G07G10G13G20G23R01R02R11R12R17
                                R18
  22297415.055 7                  -1788386.729 7  -1349858.56848  22297409.26248
  20543380.875 7                   -407831.123 7   -310887.77148  20543376.08648
  22072627.859 6  22072624.391 9  -1833512.642 6  -1408285.188 9  22072624.53548
  21396921.203 6                  -1371714.948 6  -1048976.35348  21396916.85248
  20178329.070 7                    134397.063 7    103211.70249  20178324.19949
  23253356.961 6                    457645.508 6    344438.39847  23253352.68047
  21919751.508 7                   1010744.022 7    769946.71548  21919744.55148
  22091754.242 7                    370501.707 7    280360.358 8  22091761.590 8
  19928467.078 9                   -412790.994 9   -316282.958 9  19928473.012 9
  21794790.781 7                     93343.563 7     65495.294 8  21794797.207 8
  20468198.961 8                  -1404295.952 8  -1075117.210 9  20468207.258 9
  22126675.281 6                    595155.265 6    452611.891 8  22126682.609 8
  21879381.055 6                   -131373.016 6    -99801.780 8  21879388.277 8
 11  2 28 13 37 55.0000000  0 13G02G04G07G10G13G20G23R01R02R11R12R17
                                R18
  22294262.555 7                  -1804957.375 7  -1362770.76848  22294255.79348
  20542763.031 7                   -411077.282 7   -313417.25048  20542758.40648
  22069331.477 6  22069327.469 9  -1850837.909 6  -1421785.400 9  22069327.65647
  21394473.836 6                  -1384576.316 6  -1058998.18348  21394469.35248
  20178640.141 7                    136030.628 7    104484.60049  20178635.09849
  23255361.805 6                    468183.702 6    352649.98247  23255358.27347
  21921561.016 7                   1020253.665 7    777356.83048  21921554.25048
  22093358.273 7                    379080.669 7    287032.875 8  22093366.500 8
  19927740.266 9                   -416671.768 9   -319301.327 9  19927746.258 9
  21796438.969 7                    102152.233 7     72346.469 8  21796446.363 8
  20465805.570 8                  -1417082.748 8  -1085062.496 9  20465813.289 9
  22129235.711 6                    608857.395 6    463269.074 8  22129243.555 8
  21878910.023 6                   -133881.261 6   -101752.645 8  21878918.305 8
 11  2 28 13 38  0.0000000  0 13G02G04G07G10G13G20G23R01R02R11R12R17
                                R18
  22291104.867 7                  -1821551.410 7  -1375701.13948  22291098.33248
  20542145.102 7                   -414324.166 7   -315947.27448  20542140.71948
  22066039.484 6  22066035.559 9  -1868135.852 6  -1435264.323 9  22066035.59047
  21392021.211 6                  -1397461.380 6  -1069038.48548  21392016.71548
  20178952.586 7                    137674.124 7    105765.24549  20178946.98049
  23257375.000 6                    478760.226 6    360891.36447  23257371.01247
  21923373.820 7                   1029781.366 7    784781.05548  21923367.66448
  22094970.367 7                    387692.792 7    293731.176 8  22094977.547 8
  19927012.453 9                   -420552.174 9   -322319.409 9  19927019.047 9
  21798092.484 7                    110989.689 7     79220.056 8  21798099.973 8
  20463419.500 8                  -1429824.378 8  -1094972.640 9  20463428.016 9
  22131793.859 5                    622545.677 5    473915.508 8  22131800.703 8
  21878438.375 6                   -136405.934 6   -103716.275 9  21878446.809 9
 11  2 28 13 38  5.0000000  0 13G02G04G07G10G13G20G23R01R02R11R12R17
                                R18
  22287945.258 7                  -1838154.611 7  -1388638.71448  22287938.55548
  20541527.977 7                   -417565.427 7   -318472.93748  20541523.63748
  22062751.055 6  22062746.336 9  -1885416.454 6  -1448729.724 9  22062746.47747
  21389567.063 6                  -1410357.874 6  -1079087.69548  21389562.56648
  20179267.125 7                    139326.842 7    107053.06449  20179261.80949
  23259391.828 6                    489357.449 6    369148.93747  23259387.51247
  21925188.789 7                   1039319.397 7    792213.27248  21925182.59448
  22096584.453 7                    396322.854 7    300443.444 8  22096591.770 8
  19926285.523 9                   -424430.532 9   -325335.916 9  19926292.426 9
  21799750.297 7                    119849.376 7     86110.933 8  21799756.707 8
  20461040.594 8                  -1442534.468 8  -1104858.273 9  20461049.074 9
  22134351.828 6                    636230.116 6    484558.952 8  22134356.641 8
  21877965.234 6                   -138930.545 6   -105679.867 9  21877973.059 9
 11  2 28 13 38 10.0000000  0 13G02G04G07G10G13G20G23R01R02R11R12R17
                                R18
  22284795.523 7                  -1854707.753 7  -1401537.24548  22284789.29348
  20540916.906 7                   -420774.288 7   -320973.35748  20540913.02048
  22059459.609 6  22059454.789 9  -1902717.292 6  -1462210.854 9  22059454.62947
  21387120.570 6                  -1423214.689 6  -1089105.98648  21387116.25448
  20179583.273 7                    140987.385 7    108347.01049  20179577.58249
  23261399.320 6                    499907.800 6    377370.01247  23261394.96947
  21927000.273 7                   1048840.039 7    799631.95948  21926994.05148
  22098191.445 7                    404912.827 7    307124.497 8  22098198.559 8
  19925560.766 9                   -428298.632 9   -328344.436 9  19925567.805 9
  21801408.227 7                    128709.394 7     93002.056 8  21801415.566 8
  20458658.086 8                  -1455264.297 8  -1114759.244 9  20458666.070 9
  22136915.719 5                    649952.903 5    495232.231 8  22136921.902 8
  21877505.281 6                   -141388.653 6   -107591.711 8  21877512.414 8
 11  2 28 13 38 15.0000000  0 13G02G04G07G10G13G20G23R01R02R11R12R17
                                R18
  22281646.469 7                  -1871252.863 7  -1414429.53348  22281640.71948
  20540309.438 7                   -423969.991 7   -323463.51248  20540304.96548
  22056168.211 6  22056163.797 9  -1920012.142 6  -1475687.392 9  22056163.48847
  21384675.008 6                  -1436068.212 6  -1099121.73748  21384670.16448
  20179900.891 7                    142656.420 7    109647.53349  20179895.40649
  23263406.289 6                    510458.616 6    385591.41947  23263402.19147
  21928812.836 7                   1058362.371 7    807051.97648  21928805.60948
  22099798.828 6                    413503.396 6    313806.063 8  22099805.836 8
  19924836.461 8                   -432162.731 8   -331349.850 9  19924842.680 9
  21803069.758 6                    137584.940 6     99905.220 8  21803076.730 8
  20456277.523 7                  -1467977.975 7  -1124647.654 9  20456286.012 9
  22139481.766 5                    663683.892 5    505911.860 8  22139488.328 8
  21877047.602 6                   -143827.547 6   -109488.666 9  21877056.328 9
 11  2 28 13 38 20.0000000  0 13G02G04G07G10G13G20G23R01R02R11R12R17
                                R18
  22278497.203 6                  -1887803.224 6  -1427325.93548  22278490.87148
  20539702.203 7                   -427158.880 7   -325948.35648  20539697.93448
  22052878.969 6  22052875.246 9  -1937293.134 6  -1489153.087 9  22052875.00047
  21382227.094 6                  -1448929.953 6  -1109143.87148  21382222.35548
  20180220.055 7                    144333.815 7    110954.60549  20180214.79349
  23265418.172 6                    521024.526 6    393824.58447  23265413.92647
  21930626.219 7                   1067892.463 7    814477.97848  21930619.51248
  22101407.516 7                    422106.965 7    320497.712 8  22101414.602 8
  19924112.617 8                   -436024.765 8   -334353.656 9  19924119.508 9
  21804734.492 7                    146480.728 7    106824.187 8  21804740.773 8
  20453902.563 8                  -1480664.501 8  -1134514.942 9  20453910.730 9
  22142047.375 5                    677413.491 5    516590.441 7  22142054.492 7
  21876591.758 6                   -146262.279 6   -111382.346 9  21876599.867 9
 11  2 28 13 38 25.0000000  0 12G02G04G07G10G13G20G23R01R02R11R12R18
  22275337.328 6                  -1904411.685 6  -1440267.59548  22275330.54348
  20539092.336 7                   -430364.523 7   -328446.26848  20539087.68848
  22049599.570 6  22049595.461 9  -1954525.602 6  -1502580.981 9  22049595.38347
  21379769.359 6                  -1461845.369 6  -1119207.82648  21379764.97748
  20180541.242 7                    146021.456 7    112269.65049  20180536.12949
  23267442.898 6                    531667.448 6    402117.76947  23267439.43847
  21932446.500 7                   1077456.494 7    821930.46248  21932439.94948
  22103030.695 6                    430777.066 6    327241.119 8  22103037.754 8
  19923388.719 8                   -439891.333 8   -337360.979 9  19923394.625 9
  21806406.250 6                    155417.392 6    113774.904 8  21806413.266 8
  20451541.555 7                  -1493276.871 7  -1144324.563 9  20451550.328 9
  21876125.766 6                   -148752.397 6   -113319.094 8  21876133.309 8
 11  2 28 13 38 30.0000000  0 12G02G04G07G10G13G20G23R01R02R11R12R18
  22272164.578 6                  -1921081.714 6  -1453257.22948  22272158.18848
  20538478.883 6                   -433587.701 6   -330957.83848  20538474.80548
  22046330.680 5  22046326.133 8  -1971706.309 5  -1515968.547 8  22046326.23447
  21377300.813 6                  -1474817.172 6  -1129315.72948  21377296.19148
  20180864.273 7                    147719.461 7    113592.76649  20180858.93449
  23269484.078 5                    542391.433 5    410474.08447  23269479.83247
  21934272.203 6                   1087055.392 6    829410.12548  21934266.93448
  22104664.867 6                    439516.938 6    334038.781 8  22104671.926 8
  19922662.891 8                   -443763.112 8   -340372.372 9  19922669.656 9
  21808086.289 6                    164395.299 6    120757.740 8  21808093.469 8
  20449194.891 7                  -1505811.706 7  -1154073.860 9  20449203.621 9
  21875648.211 5                   -151301.883 5   -115302.034 8  21875655.840 8
 11  2 28 13 38 35.0000000  0 12G02G04G07G10G13G20G23R01R02R11R12R18
  22268987.242 6                  -1937779.582 6  -1466268.54848  22268980.50448
  20537865.383 6                   -436814.339 6   -333472.11048  20537860.62948
  22043067.109 5  22043062.586 8  -1988858.327 5  -1529333.749 8  22043062.68447
  21374827.328 6                  -1487816.552 6  -1139445.11348  21374822.67648
  20181189.367 7                    149427.374 7    114923.60549  20181183.69149
  23271532.930 5                    553158.675 5    418864.13947  23271528.41847
  21936103.320 6                   1096675.054 6    836905.95648  21936097.18448
  22106307.148 6                    448294.798 6    340866.013 8  22106314.488 8
  19921936.914 8                   -447634.432 8   -343383.402 9  19921943.750 9
  21809772.672 7                    173403.759 7    127764.277 8  21809779.496 8
  20446857.555 7                  -1518298.526 7  -1163785.846 9  20446865.809 9
  21875165.711 5                   -153873.290 5   -117302.016 8  21875174.445 8
 11  2 28 13 38 40.0000000  0 15G02G04G07G08G10G13G20G23R01R02R11R12
                                R13R17R18
  22265808.039 6                  -1954485.022 6  -1479285.77148  22265801.57448
  20537252.367 7                   -440034.311 7   -335981.18348  20537247.61748
  22039805.539 6  22039801.516 8  -2005993.208 6  -1542685.595 8  22039801.58247
  24323532.805 1                                                
  21372351.766 6                  -1500825.775 6  -1149582.16948  21372347.24248
  20181516.141 7                    151144.742 7    116261.80749  20181510.43449
  23273585.781 5                    563945.775 5    427269.67047  23273581.22747
  21937935.719 6                   1106304.910 6    844409.72948  21937929.13748
  22107952.172 6                    457089.996 6    347706.711 8  22107959.730 8
  19921212.438 8                   -451502.872 8   -346392.188 9  19921218.852 9
  21811462.602 6                    182434.127 6    134787.916 8  21811469.105 8
  20444525.719 7                  -1530754.451 7  -1173473.771 9  20444533.965 9
  22788879.023 3                    -74029.71913                
  22152252.469 4                    732015.46914    559059.37217  22152257.668 7
  21874684.609 5                   -156443.202 5   -119300.846 8  21874692.809 8
 11  2 28 13 38 45.0000000  0 12G02G04G07G10G13G20G23R01R02R11R12R18
  22262624.547 6                  -1971215.160 6  -1492322.24148  22262617.67648
  20536639.211 6                   -443255.413 6   -338491.13448  20536634.51648
  22036550.820 5  22036546.703 8  -2023099.767 5  -1556015.374 8  22036546.42247
  21369871.922 6                  -1513859.696 6  -1159738.46848  21369866.75848
  20181844.438 7                    152872.249 7    117607.91249  20181839.43849
  23275646.164 5                    574773.088 5    435706.53847  23275641.69947
  21939771.836 6                   1115953.646 6    851928.22248  21939765.21148
  22109603.992 6                    465920.327 6    354574.742 8  22109611.367 8
  19920487.234 8                   -455370.563 8   -349400.388 9  19920493.145 9
  21813157.492 6                    191493.064 6    141833.744 8  21813164.414 8
  20442203.164 7                  -1543164.259 7  -1183125.837 9  20442211.008 9
  21874200.688 5                   -159031.466 5   -121313.945 8  21874207.230 8
 11  2 28 13 38 50.0000000  0 13G02G04G07G10G13G20G23R01R02R11R12R17
                                R18
  22259439.844 6                  -1987950.993 6  -1505363.14348  22259433.53548
  20536027.773 6                   -446469.043 6   -340995.27348  20536023.37148
  22033297.922 3  22033294.426 8  -2040190.417 3  -1569332.726 8  22033294.61347
  21367389.820 6                  -1526901.878 6  -1169901.20748  21367384.66848
  20182175.094 7                    154608.952 7    118961.18748  20182170.11748
  23277710.039 5                    585617.986 5    444157.09347  23277705.88747
  21941609.703 6                   1125611.621 6    859453.91848  21941602.64148
  22111258.797 6                    474766.007 6    361454.691 8  22111266.207 8
  19919763.336 8                   -459235.216 8   -352406.234 9  19919769.816 9
  21814856.430 2                    200574.578 2    148897.147 8  21814863.027 8
  20439884.406 7                  -1555545.101 7  -1192755.381 9  20439893.105 9
  22157340.766 3                                    580237.65117  22157346.570 7
  21873715.414 5                   -161616.226 5   -123324.325 8  21873723.602 8
 11  2 28 13 38 55.0000000  0 13G02G04G07G10G13G20G23R01R02R11R12R17
                                R18
  22256255.500 6                  -2004685.913 6  -1518403.35448  22256248.44548
  20535418.367 7                   -449672.645 7   -343491.59048  20535413.57048
  22030047.805 5  22030043.633 8  -2057270.188 5  -1582641.655 8  22030043.77047
  21364907.672 6                  -1539946.768 6  -1180066.06548  21364902.18448
  20182507.156 7                    156353.933 7    120320.91349  20182501.83249
  23279775.086 6                    596471.825 6    452614.62247  23279770.91847
  21943448.875 6                   1135274.322 6    866983.28948  21943442.28148
  22112914.867 6                    483619.565 6    368340.791 8  22112922.242 8
  19919039.844 8                   -463096.705 8   -355409.612 9  19919046.348 9
  21816559.398 7                    209670.97417    155972.37718  21816566.523 8
  20437571.422 8                  -1567903.726 8  -1202367.634 9  20437579.492 9
  22159885.031 5                    772862.39515    590828.42217  22159891.113 7
  21873233.344 6                   -164190.063 6   -125326.187 8  21873241.492 8
 11  2 28 13 39  0.0000000  0 15G02G04G07G08G10G13G20G23R01R02R11R12
                                R13R17R18
  22253072.438 6                  -2021411.422 6  -1531436.21148  22253066.00448
  20534811.258 7                   -452861.895 7   -345976.72248  20534806.26248
  22026798.953 6  22026794.500 8  -2074343.702 6  -1595945.697 8  22026794.70347
  24307587.883 3                    -28378.39513                
  21362425.820 6                  -1552986.831 6  -1190227.14748  21362421.12548
  20182841.289 7                    158109.111 7    121688.58749  20182836.11749
  23281841.188 6                    607327.421 6    461073.51747  23281837.23047
  21945288.180 7                   1144941.123 7    874515.86348  21945281.09448
  22114572.086 6                    492475.452 6    375228.702 8  22114578.848 8
  19918316.813 8                   -466951.754 8   -358407.985 9  19918323.648 9
  21818265.156 7                    218785.231 7    163061.196 8  21818271.242 8
  20435260.883 8                  -1580245.149 8  -1211966.514 9  20435268.852 9
  22770183.016 3                      7641.64513                
  22162430.828 5                    786487.612 5    601425.779 7  22162437.227 7
  21872755.273 6                   -166743.818 6   -127312.456 8  21872763.531 8
 11  2 28 13 39  5.0000000  0 15G02G04G07G08G10G13G20G23R01R02R11R12
                                R13R17R18
  22249894.633 6                  -2038111.965 6  -1544449.62148  22249888.03948
  20534208.352 7                   -456029.523 7   -348445.00848  20534203.79348
  22023548.914 5  22023545.172 8  -2091419.946 5  -1609251.857 8  22023545.17647
  24303600.023 2                    -49332.74012    -11114.26056  24303599.07046
  21359948.313 6                  -1566008.731 6  -1200374.08148  21359943.35248
  20183176.883 7                    159872.554 7    123062.69349  20183171.86349
  23283904.102 6                    618165.199 6    469518.52947  23283899.23847
  21947126.305 6                   1154601.595 6    882043.50448  21947119.48048
  22116225.547 6                    501315.973 6    382104.643 8  22116232.609 8
  19917595.563 8                   -470800.329 8   -361401.325 9  19917602.223 9
  21819972.141 7                    227907.946 7    170156.639 8  21819979.238 8
  20432950.828 7                  -1592584.063 7  -1221563.442 9  20432959.625 9
  22765507.742 3                    -17319.748 3     -3107.90318  22765516.320 8
  22164981.508 5                    800134.659 5    612040.134 8  22164987.969 8
  21872284.297 5                   -169259.518 5   -129269.106 8  21872292.004 8
 11  2 28 13 39 10.0000000  0 15G02G04G07G08G10G13G20G23R01R02R11R12
                                R13R17R18
  22246723.281 6                  -2054778.276 6  -1557436.36248  22246717.09448
  20533610.813 7                   -459171.766 7   -350893.51248  20533605.77348
  22020298.328 6  22020294.203 8  -2108505.150 6  -1622564.993 8  22020294.31347
  24299610.211 2                    -70300.453 2    -27452.71546  24299608.84846
  21357474.539 6                  -1579004.642 6  -1210500.76048  21357469.98848
  20183514.344 7                    161645.473 7    124444.18249  20183509.02749
  23285960.859 5                    628976.980 5    477943.29347  23285956.52347
  21948963.727 6                   1164254.419 6    889565.16848  21948956.97748
  22117875.898 6                    510134.944 6    388963.844 8  22117883.359 8
  19916876.438 8                   -474639.303 8   -364387.193 9  19916883.188 9
  21821680.758 7                    237039.146 7    177258.674 8  21821687.605 8
  20430640.531 7                  -1604926.698 7  -1231163.271 9  20430649.340 9
  22760830.773 3                    -42297.301 3    -22534.858 8  22760838.598 8
  22167536.914 5                    813807.540 5    622674.589 8  22167542.398 8
  21871821.500 5                   -171726.825 5   -131188.122 8  21871829.395 8
 11  2 28 13 39 15.0000000  0 15G02G04G07G08G10G13G20G23R01R02R11R12
                                R13R17R18
  22243573.492 6                  -2071332.265 6  -1570335.57448  22243566.35948
  20533024.703 7                   -462252.821 7   -353294.33748  20533020.15648
  22017036.758 6  22017031.992 8  -2125648.077 6  -1635923.092 8  22017031.94547
  24295612.352 3                    -91314.55413    -43827.28556  24295610.22746
  21355019.516 6                  -1591907.418 6  -1220554.88348  21355014.45748
  20183853.414 7                    163425.618 7    125831.31849  20183847.96149
  23287996.594 6                    639672.054 6    486277.11747  23287991.89847
  21950791.531 7                   1173860.804 7    897050.69248  21950784.66848
  22119507.148 7                    518853.506 7    395744.914 8  22119513.402 8
  19916160.352 8                   -478459.568 8   -367358.506 9  19916166.680 9
  21823385.359 7                    246148.370 7    184343.636 8  21823392.617 8
  20428316.234 8                  -1617340.671 8  -1240818.560 9  20428325.551 9
  22756141.086 4                    -67343.474 4    -42015.210 8  22756147.910 8
  22170106.016 5                    827563.112 5    633373.334 8  22170113.176 8
  21871385.586 6                   -174057.133 6   -133000.599 8  21871392.750 8
 11  2 28 13 39 20.0000000  0 15G02G04G07G08G10G13G20G23R01R02R11R12
                                R13R17R18
  22240442.563 7                  -2087782.141 7  -1583153.66648  22240436.34448
  20532449.453 7                   -465277.137 7   -355650.96048  20532444.45348
  22013764.242 6  22013759.695 8  -2142844.695 6  -1649323.029 8  22013759.51647
  24291604.719 3                   -112372.83413    -60236.43956  24291603.16046
  21352580.273 6                  -1604724.403 6  -1230542.15448  21352575.75448
  20184193.281 7                    165212.470 7    127223.64749  20184188.11349
  23290010.938 6                    650258.713 6    494526.44047  23290005.73847
  21952611.242 7                   1183424.008 7    904502.47948  21952604.45348
  22121120.359 7                    527478.513 7    402453.270 8  22121126.719 8
  19915447.867 9                   -482262.869 9   -370316.658 9  19915454.207 9
  21825085.438 7                    255238.563 7    191413.790 8  21825093.242 8
  20425980.430 8                  -1629819.988 8  -1250524.702 9  20425988.402 9
  22751437.352 5                    -92454.206 5    -61545.724 8  22751446.238 8
  22172692.227 6                    841395.047 6    644131.488 8  22172698.773 8
  21870972.648 6                   -176259.553 6   -134713.615 8  21870981.477 8
 11  2 28 13 39 25.0000000  0 15G02G04G07G08G10G13G20G23R01R02R11R12
                                R13R17R18
  22237316.180 6                  -2104209.470 6  -1595954.18448  22237310.62548
  20531877.547 7                   -468281.009 7   -357991.64148  20531873.16848
  22010491.313 6  22010486.801 9  -2160042.089 6  -1662723.604 9  22010486.60547
  24287594.461 2                   -133438.249 2    -76650.90746  24287594.53146
  21350144.672 6                  -1617525.503 6  -1240517.03848  21350140.12948
  20184534.875 7                    167008.680 7    128623.30149  20184529.84449
  23292022.648 6                    660831.962 6    502765.34647  23292018.25847
  21954430.484 8                   1192983.940 8    911951.79248  21954423.60248
  22122732.344 7                    536092.426 7    409152.951 8  22122738.426 8
  19914736.648 9                   -486059.221 9   -373269.373 9  19914742.457 9
  21826790.047 7                    264340.588 7    198493.105 8  21826797.293 8
  20423645.594 8                  -1642292.809 8  -1260225.758 9  20423654.156 9
  22746734.516 5                   -117572.130 5    -81081.874 8  22746741.711 8
  22175280.820 6                    855245.568 6    654904.097 8  22175288.141 8
  21870566.445 6                   -178426.577 6   -136399.054 8  21870575.621 8
 11  2 28 13 39 30.0000000  0 15G02G04G07G08G10G13G20G23R01R02R11R12
                                R13R17R18
  22234191.555 6                  -2120629.181 6  -1608748.76648  22234185.97348
  20531308.359 7                   -471272.030 7   -360322.30148  20531303.72348
  22007220.484 6  22007215.914 9  -2177232.702 6  -1676118.881 9  22007215.60547
  24283586.344 4                   -154505.582 4    -93066.95746  24283585.46546
  21347709.023 6                  -1630323.787 6  -1250489.71748  21347704.83248
  20184878.148 7                    168813.354 7    130029.54149  20184873.03549
  23294034.289 6                    671406.692 6    511005.37947  23294030.10247
  21956250.070 7                   1202546.078 7    919402.78048  21956243.10948
  22124343.203 7                    544707.698 7    415853.715 8  22124350.035 8
  19914026.219 9                   -489851.460 9   -376218.900 9  19914032.109 9
  21828496.977 7                    273458.342 7    205584.692 8  21828503.602 8
  20421314.094 8                  -1654748.492 8  -1269913.508 9  20421321.750 9
  22742031.586 5                   -142688.882 5   -100617.112 8  22742040.070 8
  22177870.781 6                    869103.538 6    665682.481 8  22177878.133 8
  21870163.602 6                   -180575.108 6   -138070.125 9  21870173.996 9
 11  2 28 13 39 35.0000000  0 15G02G04G07G08G10G13G20G23R01R02R11R12
                                R13R17R18
  22231068.938 7                  -2137040.521 7  -1621536.81548  22231063.22348
  20530741.891 7                   -474249.305 7   -362642.26948  20530737.08648
  22003950.539 6  22003945.766 9  -2194415.783 6  -1689508.287 9  22003945.63348
  24279576.906 3                   -175574.060 3   -109484.01346  24279575.93846
  21345274.156 6                  -1643118.389 6  -1260459.54248  21345269.52748
  20185223.602 7                    170627.222 7    131442.92749  20185218.43049
  23296047.477 6                    681983.572 6    519247.09247  23296043.22347
  21958070.484 7                   1212111.181 7    926856.12248  21958063.41048
  22125954.875 7                    553325.178 7    422556.194 8  22125963.023 8
  19913315.836 9                   -493638.751 9   -379164.567 9  19913321.543 9
  21830206.469 7                    282592.631 7    212689.162 8  21830213.012 8
  20418985.664 8                  -1667186.265 8  -1279587.316 9  20418993.375 9
  22737328.211 5                   -167803.569 5   -120150.720 8  22737337.074 8
  22180461.992 6                    882969.719 6    676467.262 8  22180469.348 8
  21869765.344 7                   -182704.583 7   -139726.395 9  21869775.332 9
 11  2 28 13 39 40.0000000  0 15G02G04G07G08G10G13G20G23R01R02R11R12
                                R13R17R18
  22227947.305 7                  -2153444.036 7  -1634318.77548  22227941.60548
  20530177.711 7                   -477213.340 7   -364951.91048  20530172.96548
  22000682.453 6  22000677.242 9  -2211591.829 6  -1702892.223 9  22000677.39547
  24275567.891 1                   -196644.360 1   -125902.39046  24275566.80546
  21342840.680 6                  -1655909.876 6  -1270426.92948  21342835.55148
  20185570.383 7                    172449.820 7    132863.12849  20185565.19149
  23298061.289 6                    692562.095 6    527490.07947  23298055.71547
  21959890.961 7                   1221678.716 7    934311.35248  21959883.95348
  22127567.648 7                    561944.281 7    429259.925 8  22127575.914 8
  19912607.133 9                   -497421.692 9   -382106.867 9  19912612.891 9
  21831918.016 7                    291742.974 7    219806.095 8  21831925.727 8
  20416660.930 8                  -1679606.618 8  -1289247.603 9  20416668.270 9
  22732622.352 4                   -192916.895 4   -139683.332 8  22732633.086 8
  22183054.320 6                    896843.682 6    687258.100 8  22183061.820 8
  21869369.992 7                   -184815.239 7   -141368.035 9  21869379.359 9
 11  2 28 13 39 45.0000000  0 15G02G04G07G08G10G13G20G23R01R02R11R12
                                R13R17R18
  22224827.188 7                  -2169840.228 7  -1647095.03148  22224821.47348
  20529616.297 7                   -480164.753 7   -367251.72548  20529611.28148
  21997415.125 6  21997410.098 9  -2228761.344 6  -1716271.045 9  21997409.73847
  24271558.813 3                   -217717.013 3   -142322.58945  24271557.09045
  21340406.703 6                  -1668698.860 6  -1280392.35748  21340401.50448
  20185918.742 7                    174280.497 7    134289.62649  20185913.41849
  23300073.219 6                    703141.743 6    535733.96047  23300069.48447
  21961712.031 8                   1231248.103 8    941768.00348  21961704.81648
  22129179.555 7                    570564.383 7    435964.453 8  22129188.691 8
  19911898.375 9                   -501200.899 9   -385046.245 9  19911904.938 9
  21833632.992 7                    300908.652 7    226934.944 8  21833640.684 8
  20414338.805 9                  -1692010.081 9  -1298894.730 9  20414347.063 9
  22727921.680 5                   -218029.426 5   -159215.224 8  22727931.352 8
  22185648.883 5                    910724.791 5    698054.529 8  22185655.691 8
  21868977.398 6                   -186907.779 6   -142995.558 9  21868986.750 9
 11  2 28 13 39 50.0000000  0 15G02G04G07G08G10G13G20G23R01R02R11R12
                                R13R17R18
  22221709.172 7                  -2186227.647 7  -1659864.43848  22221702.96148
  20529057.344 7                   -483102.130 7   -369540.59448  20529051.39848
  21994149.313 6  21994144.496 9  -2245922.964 6  -1729643.751 9  21994143.82847
  24267547.133 2                   -238790.541 2   -158743.47546  24267546.40646
  21337973.273 6                  -1681483.835 6  -1290354.69348  21337968.55148
  20186268.906 7                    176120.687 7    135723.53649  20186263.55949
  23302087.820 6                    713723.913 6    543979.77147  23302083.50047
  21963533.609 8                   1240820.741 8    949227.20448  21963526.28548
  22130793.219 7                    579187.074 7    442670.974 8  22130801.652 8
  19911191.594 9                   -504974.691 9   -387981.415 9  19911198.023 9
  21835351.711 7                    310091.122 7    234076.858 8  21835359.270 8
  20412020.469 8                  -1704395.282 8  -1308527.659 9  20412029.051 9
  22723218.859 5                   -243139.482 5   -178745.257 8  22723229.555 8
  22188244.820 5                    924614.475 5    708857.610 8  22188251.043 8
  21868589.625 7                   -188980.778 7   -144607.885 9  21868599.211 9
 11  2 28 13 39 55.0000000  0 15G02G04G07G08G10G13G20G23R01R02R11R12
                                R13R17R18
  22218592.484 7                  -2202606.580 7  -1672627.23748  22218586.35248
  20528501.289 7                   -486025.670 7   -371818.68348  20528496.27348
  21990885.047 6  21990880.063 9  -2263076.870 6  -1743010.435 9  21990879.72347
  24263537.359 2                   -259865.163 2   -175165.21146  24263535.91046
  21335541.719 7                  -1694265.072 7  -1300314.08748  21335536.65248
  20186620.875 7                    177970.169 7    137164.69049  20186615.46549
  23304102.266 6                    724308.309 6    552227.35347  23304097.02747
  21965355.609 7                   1250396.415 7    956688.76248  21965348.57848
  22132406.703 7                    587812.012 7    449379.259 8  22132415.328 8
  19910485.406 9                   -508743.476 9   -390912.695 9  19910491.535 9
  21837073.180 7                    319290.215 7    241231.702 8  21837079.539 8
  20409704.961 8                  -1716762.267 8  -1318146.415 9  20409713.117 9
  22718517.109 5                   -268247.306 5   -198273.557 8  22718527.891 8
  22190841.914 5                    938512.443 5    719667.129 8  22190847.953 8
  21868205.289 7                   -191034.390 7   -146205.136 9  21868213.570 9
 11  2 28 13 40  0.0000000  0 15G02G04G07G08G10G13G20G23R01R02R11R12
                                R13R17R18
  22215476.906 7                  -2218977.425 7  -1685383.74048  22215471.46548
  20527946.820 7                   -488935.845 7   -374086.34848  20527942.24248
  21987622.461 6  21987617.293 9  -2280223.523 6  -1756371.459 9  21987616.96947
  24259526.750 2                   -280941.353 2   -191588.21845  24259525.52045
  21333110.445 6                  -1707043.035 6  -1310270.93848  21333104.58648
  20186974.516 7                    179828.502 7    138612.74349  20186969.32049
  23306115.906 6                    734894.524 6    560476.34947  23306111.63747
  21967178.500 7                   1259974.626 7    964152.29948  21967171.23448
  22134020.328 7                    596438.746 7    456088.930 8  22134028.379 8
  19909780.141 9                   -512507.790 9   -393840.496 9  19909785.973 9
  21838798.016 7                    328505.334 7    248399.009 8  21838803.582 8
  20407393.398 8                  -1729111.563 8  -1327751.426 9  20407401.172 9
  22713817.000 6                   -293353.445 6   -217800.530 8  22713825.152 8
  22193439.617 5                    952418.266 5    730482.773 8  22193446.801 8
  21867824.281 7                   -193069.094 7   -147787.683 9  21867832.336 9
 11  2 28 13 40  5.0000000  0 15G02G04G07G08G10G13G20G23R01R02R11R12
                                R13R17R18
  22212358.375 7                  -2235368.072 7  -1698155.65448  22212352.34848
  20527393.203 7                   -491844.867 7   -376353.10548  20527388.93848
  21984363.094 6  21984359.434 9  -2297344.606 6  -1769712.554 9  21984359.30547
  24255517.781 2                                                  24255516.89546
  21330674.414 6                  -1719841.398 6  -1320243.66948  21330669.64548
  20187329.828 7                    181696.781 7    140068.56649  20187324.83249
  23308137.352 6                    745515.590 6    568752.51947  23308132.94947
  21969004.141 7                   1269569.424 7    971628.76448  21968997.62548
  22135639.852 7                    605095.988 7    462822.308 8  22135646.574 8
  19909074.867 9                   -516270.545 9   -396767.057 9  19909081.625 9
  21840527.469 7                    337747.224 7    255587.153 8  21840532.840 8
  20405088.781 8                  -1741418.640 8  -1337323.606 9  20405096.871 9
  22709118.734 4                   -318438.091 4   -237310.814 8  22709126.250 8
  22196036.133 6                    966312.256 6    741289.218 8  22196042.574 8
  21867440.297 7                   -195116.955 7   -149380.483 9  21867448.086 9
 11  2 28 13 40 10.0000000  0 15G02G04G07G08G10G13G20G23R01R02R11R12
                                R13R17R18
  22209225.883 6                  -2251828.277 6  -1710981.79948  22209218.91448
  20526835.844 7                   -494774.931 7   -378636.27148  20526831.55148
  21981116.773 6  21981111.785 9  -2314408.105 6  -1783008.797 9  21981111.94947
  24251516.461 2                   -323036.62012   -224389.64155  24251514.95745
  21328227.102 7                  -1732702.702 7  -1330265.47548  21328222.42248
  20187687.547 7                    183576.528 7    141533.30149  20187682.42249
  23310176.086 6                    756229.823 6    577101.27047  23310171.90647
  21970837.680 7                   1279205.479 7    979137.37348  21970831.52048
  22137275.352 7                    613834.396 7    469618.852 8  22137281.645 8
  19908368.797 9                   -520037.156 9   -399696.655 9  19908375.488 9
  21842265.961 7                    347034.148 7    262810.295 8  21842271.797 8
  20402801.008 8                  -1753640.061 8  -1346829.152 9  20402809.297 9
  22704432.625 5                   -343466.229 5   -256777.141 8  22704440.246 8
  22198623.031 6                    980159.441 6    752059.257 8  22198629.094 8
  21867042.680 6                   -197234.135 6   -151027.189 8  21867051.391 8
 11  2 28 13 40 15.0000000  0 15G02G04G07G08G10G13G20G23R01R02R11R12
                                R13R17R18
  22206084.977 6                  -2268331.487 6  -1723841.42648  22206078.67648
  20526280.047 7                   -497694.945 7   -380911.58648  20526275.46948
  21977882.070 6  21977877.902 9  -2331403.883 6  -1796252.222 9  21977877.71548
  24247528.664 5                   -343989.39615   -240716.40356  24247527.46946
  21325772.656 6                  -1745602.220 6  -1340317.04647  21325767.60547
  20188042.508 7                    185442.388 7    142987.24449  20188037.05549
  23312220.188 6                    766968.375 6    585468.95147  23312215.68047
  21972665.070 7                   1288807.212 7    986619.26848  21972658.30948
  22138908.664 7                    622569.576 7    476412.919 8  22138915.633 8
  19907655.805 8                   -523843.395 8   -402657.029 9  19907662.027 9
  21843995.875 7                    356284.559 7    270005.097 8  21844002.785 8
  20400521.242 8                  -1765818.254 8  -1356301.049 9  20400529.586 9
  22699759.969 5                   -368412.798 5   -276179.981 8  22699767.523 8
  22201218.484 5                    994045.920 5    762859.883 8  22201224.594 8
  21866641.875 5                   -199377.281 5   -152694.065 8  21866649.781 8
 11  2 28 13 40 20.0000000  0 15G02G04G07G08G10G13G20G23R01R02R11R12
                                R13R17R18
  22202940.664 6                  -2284858.286 6  -1736719.45648  22202934.13348
  20525727.789 7                   -500597.299 7   -383173.17348  20525723.13348
  21974658.320 6  21974654.391 9  -2348345.216 6  -1809453.266 9  21974654.15648
  24243553.633 4                   -364881.459 4   -256995.93846  24243551.86346
  21323313.672 6                  -1758522.791 6  -1350385.02248  21323309.38348
  20188396.891 7                    187303.384 7    144437.36349  20188391.53149
  23314266.734 6                    777722.556 6    593848.84347  23314262.21147
  21974487.305 7                   1298383.140 7    994081.02748  21974480.67648
  22140541.445 7                    631299.811 7    483203.067 8  22140549.027 8
  19906937.617 8                   -527675.040 8   -405637.224 9  19906944.402 9
  21845722.625 7                    365510.269 7    277180.640 8  21845729.309 8
  20398248.695 8                  -1777959.881 8  -1365744.532 9  20398256.816 9
  22695099.344 5                   -393296.522 5   -295533.992 8  22695107.336 8
  22203819.891 5                   1007971.507 5    773690.849 8  22203827.098 8
  21866238.953 6                   -201527.672 6   -154366.590 8  21866247.461 8
 11  2 28 13 40 25.0000000  0 15G02G04G07G08G10G13G20G23R01R02R11R12
                                R13R17R18
  22199791.523 6                  -2301405.270 6  -1749613.20748  22199785.00448
  20525175.883 7                   -503497.323 7   -385432.93148  20525171.10948
  21971439.719 6  21971435.516 9  -2365258.778 6  -1822632.656 9  21971435.46548
  24239579.641 4                   -385762.438 4   -273266.78046  24239578.07046
  21320851.711 6                  -1771463.579 6  -1360468.75048  21320846.89148
  20188753.805 7                    189178.145 7    145898.21049  20188748.25049
  23316320.352 6                    788517.509 6    602260.50847  23316315.96147
  21976313.789 7                   1307981.429 7   1001560.19648  21976307.02348
  22142182.352 7                    640067.297 7    490022.229 8  22142189.254 8
  19906220.445 8                   -531500.716 8   -408612.739 9  19906227.211 9
  21847453.914 7                    374767.667 7    284380.819 8  21847461.551 8
  20395983.578 8                  -1790054.377 8  -1375151.352 9  20395992.523 9
  22690443.297 5                   -418157.665 5   -314870.419 8  22690451.871 8
  22206419.883 5                   1021882.094 5    784510.195 8  22206426.488 8
  21865833.523 6                   -203692.632 6   -156050.450 8  21865841.129 8
 11  2 28 13 40 30.0000000  0 15G02G04G07G08G10G13G20G23R01R02R11R12
                                R13R17R18
  22196649.172 5                  -2317918.256 5  -1762480.43847  22196642.58647
  20524635.516 6                   -506336.653 6   -387645.35448  20524630.96948
  21968229.461 6  21968224.762 9  -2382130.194 6  -1835779.198 9  21968224.78148
  24235623.461 4                   -406554.661 4   -289468.44446  24235621.19546
  21318394.352 6                  -1784375.218 6  -1370529.72547  21318389.68847
  20189104.023 7                    191019.749 7    147333.26248  20189098.95748
  23318357.211 6                    799222.509 6    610602.06947  23318353.10247
  21978118.047 6                   1317462.965 6   1008948.44948  21978111.19148
  22143800.391 7                    648714.069 7    496747.516 8  22143806.773 8
  19905492.609 7                   -535385.291 7   -411634.049 9  19905499.473 9
  21849165.164 6                    383908.055 6    291490.047 8  21849171.902 8
  20393713.734 8                  -1802183.465 8  -1384585.064 9  20393722.188 9
  22685799.391 6                   -442954.657 6   -334156.953 8  22685808.152 8
  22209048.367 4                   1035938.395 4    795442.943 7  22209053.082 7
  21865441.555 5                   -205785.425 5   -157678.175 8  21865449.348 8
 11  2 28 13 40 35.0000000  0 15G02G04G07G08G10G13G20G23R01R02R11R12
                                R13R17R18
  22193507.125 6                  -2334430.173 6  -1775346.88247  22193500.63747
  20524099.336 6                   -509156.245 6   -389842.45548  20524094.27748
  21965023.516 6  21965019.813 9  -2398976.211 6  -1848905.948 9  21965019.64548
  24231671.859 4                   -427321.241 4   -305650.20046  24231669.53146
  21315936.797 6                  -1797288.562 6  -1380592.07347  21315932.35247
  20189454.883 7                    192863.075 7    148769.60848  20189449.34848
  23320394.914 6                    809927.193 6    618943.39647  23320390.70747
  21979919.188 6                   1326929.126 6   1016324.66348  21979912.22348
  22145415.039 6                    657351.647 6    503465.634 8  22145422.961 8
  19904763.016 7                   -539278.792 7   -414662.337 9  19904769.313 9
  21850874.969 6                    393041.207 6    298593.596 8  21850881.195 8
  20391446.547 7                  -1814292.626 7  -1394003.301 9  20391454.648 9
  22681160.672 5                   -467725.200 5   -353422.867 8  22681168.945 8
  22211678.031 4                   1050024.213 4    806398.540 7  22211685.887 7
  21865052.891 5                   -207862.347 5   -159293.585 8  21865060.152 8
 11  2 28 13 40 40.0000000  0 15G02G04G07G08G10G13G20G23R01R02R11R12
                                R13R17R18
  22190366.531 5                  -2350931.215 5  -1788204.83147  22190360.39147
  20523565.023 6                   -511961.969 6   -392028.73748  20523560.38348
  21961818.500 6  21961815.070 9  -2415817.323 6  -1862028.893 9  21961814.73048
  24227718.844 4                   -448094.771 4   -321837.33946  24227716.12946
  21313480.078 6                  -1810196.326 6  -1390650.06947  21313475.82847
  20189808.250 6                    194719.339 6    150216.03948  20189802.78948
  23322432.930 6                    820638.224 6    627289.64147  23322427.78147
  21981722.992 6                   1336405.544 6   1023708.87848  21981715.74648
  22147034.156 6                    665998.102 6    510190.638 8  22147040.613 8
  19904035.617 7                   -543161.489 7   -417682.214 9  19904041.453 9
  21852588.289 5                    402198.809 5    305716.165 8  21852595.227 8
  20389183.414 7                  -1826381.675 7  -1403405.887 9  20389191.816 9
  22676522.117 5                   -492498.354 5   -372690.842 8  22676530.160 8
  22214312.898 4                                    817356.31517  22214318.023 7
  21864666.891 5                   -209919.079 5   -160893.271 8  21864674.672 8
 11  2 28 13 40 45.0000000  0 14G02G04G07G08G10G13G20G23R01R02R11R12
                                R13R18
  22187226.961 5                  -2367428.618 5  -1801059.91647  22187221.54747
  20523034.766 6                   -514753.038 6   -394203.60548  20523029.72748
  21958616.688 6  21958612.680 9  -2432643.486 6  -1875140.194 9  21958612.67248
  24223767.523 4                   -468859.875 4   -338017.88346  24223764.36746
  21311024.219 6                  -1823104.476 6  -1400708.36448  21311019.67648
  20190162.453 6                    196582.609 6    151667.94848  20190157.17248
  23324471.117 3                    831355.01813    635640.31456  23324467.86346
  21983525.867 6                   1345881.284 6   1031092.55548  21983518.98848
  22148651.609 3                    674647.349 3    516917.780 7  22148657.930 7
  19903307.836 7                   -547043.278 7   -420701.381 9  19903314.695 9
  21854303.656 5                    411367.009 5    312846.968 7  21854310.797 7
  20386925.000 7                  -1838449.672 7  -1412792.086 9  20386932.367 9
  22671885.000 5                   -517259.668 5   -391949.656 8  22671893.207 8
  21864284.813 4                   -211960.487 4   -162480.964 8  21864293.148 8
 11  2 28 13 40 50.0000000  0 14G02G04G07G08G10G13G20G23R01R02R11R12
                                R13R18
  22184087.172 5                  -2383931.501 5  -1813919.34047  22184080.64547
  20522505.461 6                   -517530.697 6   -396368.01348  20522501.24248
  21955419.328 6  21955415.496 9  -2449445.119 6  -1888232.372 9  21955415.34448
  24219820.211 4                   -489604.580 4   -354182.57046  24219816.80546
  21308566.531 6                  -1836020.358 6  -1410772.69947  21308562.01247
  20190518.227 6                    198449.563 6    153122.70748  20190512.53948
  23326513.164 5                    842082.106 5    643999.16247  23326509.57047
  21985326.945 6                   1355351.526 6   1038471.97347  21985320.97347
  22150270.773 6                    683299.71016    523647.43218  22150276.852 8
  19902579.578 7                   -550930.884 7   -423725.084 9  19902586.098 9
  21856020.133 5                    420538.440 5    319980.308 8  21856026.879 8
  20384670.367 7                  -1850491.385 7  -1422157.878 9  20384677.566 9
  22667252.953 6                   -541996.853 6   -411189.661 8  22667260.715 8
  21863904.719 5                   -213995.330 5   -164063.708 8  21863911.199 8
 11  2 28 13 40 55.0000000  0 14G02G04G07G08G10G13G20G23R01R02R11R12
                                R13R18
  22180948.102 6                  -2400428.239 6  -1826773.92847  22180941.50847
  20521979.523 6                   -520294.714 6   -398521.79648  20521974.95348
  21952224.047 6  21952220.176 9  -2466236.780 6  -1901316.771 9  21952219.97348
  24215872.430 4                   -510347.052 4   -370345.51246  24215870.10946
  21306109.109 6                  -1848934.891 6  -1420835.96847  21306104.43047
  20190874.461 6                    200324.151 6    154583.42448  20190868.97748
  23328555.609 6                    852813.218 6    652361.03447  23328551.02347
  21987130.672 6                   1364823.323 6   1045852.58548  21987124.11748
  22151889.680 6                    691955.083 6    530379.371 8  22151895.305 8
  19901851.758 7                   -554815.400 7   -426746.376 9  19901858.125 9
  21857739.367 5                    429723.654 5    327124.350 8  21857746.223 8
  20382419.695 7                  -1862514.438 7  -1431509.132 9  20382428.203 9
  22662621.000 5                   -566728.525 5   -430425.407 8  22662629.129 8
  21863525.969 4                   -216013.081 4   -165633.057 8  21863533.570 8
 11  2 28 13 41  0.0000000  0 15G02G04G07G08G10G13G20G23R01R02R11R12
                                R13R17R18
  22177810.563 5                  -2416915.394 5  -1839621.08347  22177804.39547
  20521455.836 6                   -523044.998 6   -400664.87948  20521451.68848
  21949030.234 6  21949025.914 9  -2483022.710 6  -1914396.707 9  21949025.78148
  24211924.664 4                   -531092.513 4   -386510.81346  24211921.88346
  21303651.938 6                  -1861845.345 6  -1430896.05147  21303647.46547
  20191232.977 6                    202207.153 6    156050.69948  20191227.56348
  23330598.125 5                    863545.985 5    660724.22147  23330593.74247
  21988932.773 6                   1374298.006 6   1053235.44948  21988926.98048
  22153508.984 6                    700612.628 6    537113.007 8  22153515.945 8
  19901124.547 7                   -558694.542 7   -429763.487 9  19901131.070 9
  21859460.930 5                    438925.177 5    334281.090 8  21859467.727 8
  20380171.398 7                  -1874520.977 7  -1440847.535 9  20380179.984 9
  22657989.242 6                   -591459.920 6   -449660.941 8  22657997.453 8
  22224869.719 3                                    861284.19317  22224871.758 7
  21863150.789 4                   -218010.518 4   -167186.599 8  21863159.305 8
 11  2 28 13 41  5.0000000  0 15G02G04G07G08G10G13G20G23R01R02R11R12
                                R13R17R18
  22174675.773 5                  -2433389.257 5  -1852457.84347  22174669.04347
  20520935.297 6                   -525780.672 6   -402796.58648  20520931.16048
  21945836.258 6  21945832.141 9  -2499806.310 6  -1927474.839 9  21945832.18848
  24207975.367 3                   -551844.457 3   -402681.07046  24207973.02046
  21301196.328 6                  -1874748.584 6  -1440950.52947  21301191.99247
  20191592.906 6                    204099.267 6    157525.06748  20191587.81348
  23332640.742 5                    874276.807 5    669085.89247  23332636.02047
  21990737.164 6                   1383775.441 6   1060620.46447  21990729.84847
  22155127.852 5                    709270.349 5    543846.793 7  22155135.520 7
  19900398.641 7                   -562566.709 7   -432775.165 9  19900405.043 9
  21861186.664 5                    448143.950 5    341451.241 7  21861192.969 7
  20377926.961 7                  -1886513.885 7  -1450175.350 9  20377934.801 9
  22653357.688 6                   -616195.160 6   -468899.490 8  22653365.477 8
  22227509.977 2                   1134731.93912    872283.27817  22227515.391 7
  21862782.914 5                   -219983.939 5   -168721.482 7  21862789.305 7
 11  2 28 13 41 10.0000000  0 13G02G04G07G08G10G13G20G23R01R02R13R17
                                R18
  22171544.273 5                  -2449844.358 5  -1865279.99547  22171537.90647
  20520418.000 6                   -528501.087 6   -404916.37948  20520413.23848
  21942641.906 6  21942637.117 9  -2516593.026 6  -1940555.387 9  21942637.09048
  24204023.758 4                   -572611.396 4   -418863.13146  24204021.48446
  21298743.023 6                  -1887639.976 6  -1450995.76647  21298738.57847
  20191955.633 6                    206004.557 6    159009.71248  20191949.93848
  23334681.523 5                    885006.34315    677446.53257  23334678.00047
  21992542.695 6                   1393262.633 6   1068013.07947  21992535.02047
  22156749.164 6                    717931.631 6    550583.297 8  22156755.570 8
  19899675.273 7                   -566425.435 7   -435776.398 9  19899682.004 9
  22648723.367 6                   -640942.011 6   -488147.008 8  22648730.930 8
  22230153.289 2                   1148876.762 2    883284.793 7  22230158.715 7
  21862418.117 5                   -221928.828 5   -170234.200 8  21862424.973 8
 11  2 28 13 41 15.0000000  0 15G02G04G07G08G10G13G20G23R01R02R11R12
                                R13R17R18
  22168427.695 5                  -2466224.748 5  -1878043.95947  22168421.09847
  20519907.703 6                   -531183.278 6   -407006.40548  20519903.27348
  21939439.758 6  21939435.336 9  -2533420.077 6  -1953667.352 9  21939435.35948
  24200064.094 5                   -593421.772 5   -435078.92746  24200061.34446
  21296301.734 6                  -1900472.309 6  -1460994.98647  21296297.16047
  20192320.539 6                    207922.761 6    160504.42748  20192315.09848
  23336710.789 4                    895671.854 4    685757.34847  23336707.54747
  21994344.930 6                   1402736.102 6   1075395.00548  21994338.40248
  22158359.211 6                    726543.762 6    557281.655 8  22158367.414 8
  19898956.898 7                   -570262.585 7   -438760.840 9  19898963.016 9
  21864648.234 6                    466643.62016    355839.88418  21864654.539 8
  20373435.250 8                  -1910505.61618  -1468835.34119  20373443.402 9
  22644079.281 5                   -665742.005 5   -507435.882 8  22644086.961 8
  22232805.180 3                   1163059.976 3    894316.149 7  22232809.000 7
  21862069.820 5                   -223782.462 5   -171675.904 7  21862077.031 7
 11  2 28 13 41 20.0000000  0 15G02G04G07G08G10G13G20G23R01R02R11R12
                                R13R17R18
  22165307.273 6                  -2482621.617 6  -1890820.73648  22165300.78548
  20519392.109 6                   -533891.439 6   -409116.70648  20519387.77748
  21936234.750 6  21936230.172 8  -2550264.130 6  -1966792.630 8  21936230.00847
  24196089.086 2                   -614301.514 2   -451348.92246  24196087.88746
  21293856.281 6                  -1913324.999 6  -1471010.11948  21293851.18448
  20192693.547 7                    209882.593 7    162031.52548  20192688.43448
  23338755.602 5                    906416.904 5    694130.03947  23338752.01247
  21996166.383 7                   1412308.270 7   1082853.78048  21996160.07448
  22159990.578 5                    735259.255 5    564060.319 7  22159996.469 7
  19898247.898 8                   -574045.261 8   -441702.967 9  19898254.508 9
  21866403.438 6                    476020.272 6    363132.796 8  21866410.070 8
  20371197.875 8                  -1922456.343 8  -1478130.381 9  20371206.691 9
  22639427.000 4                   -690585.550 4   -526758.634 8  22639434.605 8
  22235434.367 4                   1177139.494 4    905266.821 7  22235439.820 7
  21861717.727 5                   -225664.547 5   -173139.769 8  21861725.379 8
 11  2 28 13 41 25.0000000  0 15G02G04G07G08G10G13G20G23R01R02R11R12
                                R13R17R18
  22162180.297 6                  -2499052.681 6  -1903624.15948  22162174.05548
  20518872.953 7                   -536619.489 7   -411242.44348  20518868.72348
  21933031.953 6  21933027.965 9  -2567093.566 6  -1979906.453 9  21933027.53948
  24192112.586 3                   -635204.749 3   -467637.08046  24192110.34446
  21291403.789 6                  -1926211.464 6  -1481051.51348  21291399.17648
  20193071.828 7                    211871.016 7    163580.95548  20193066.52048
  23340816.141 6                    917241.965 6    702565.16147  23340811.90647
  21998001.539 7                   1421950.550 7   1090367.24348  21997995.14148
  22161636.680 7                    744062.735 7    570907.482 8  22161643.578 8
  19897544.742 8                   -577798.313 8   -444621.995 9  19897551.480 9
  21868173.492 6                    485481.078 6    370491.204 8  21868180.246 8
  20368973.578 8                  -1934338.430 8  -1487371.989 9  20368981.820 9
  22634773.797 5                   -715429.126 5   -546081.379 8  22634781.895 8
  22238050.828 4                   1191146.627 4    916161.241 7  22238057.348 7
  21861357.680 5                   -227587.010 5   -174635.021 8  21861365.582 8
 11  2 28 13 41 30.0000000  0 15G02G04G07G08G10G13G20G23R01R02R11R12
                                R13R17R18
  22159048.773 6                  -2515507.638 6  -1916446.21048  22159042.72748
  20518359.180 6                   -539319.894 6   -413346.65048  20518354.90248
  21929841.828 6  21929838.406 9  -2583855.288 6  -1992967.517 9  21929837.98448
  24188152.016 4                   -656017.947 4   -483855.11346  24188149.55946
  21288947.313 6                  -1939119.336 6  -1491109.58348  21288942.55548
  20193446.195 7                    213839.517 7    165114.85748  20193441.11748
  23342876.211 5                    928063.241 5    710997.37047  23342871.34047
  21999824.883 6                   1431533.157 6   1097834.22348  21999818.49248
  22163278.250 6                    752831.723 6    577727.811 8  22163285.039 8
  19896832.711 8                   -581598.303 8   -447577.534 9  19896838.684 9
  21869932.586 5                    494878.046 5    377799.951 8  21869938.313 8
  20366753.742 8                  -1946195.632 8  -1496594.236 9  20366762.348 9
  22630137.883 4                   -740187.297 4   -565337.734 8  22630145.348 8
  22240682.602 3                   1205228.117 3    927113.529 7  22240688.563 7
  21860996.727 5                   -229509.557 5   -176130.346 8  21861005.191 8
 11  2 28 13 41 35.0000000  0 15G02G04G07G08G10G13G20G23R01R02R11R12
                                R13R17R18
  22155918.523 6                  -2531958.664 6  -1929265.18547  22155912.54747
  20517847.703 6                   -542007.683 6   -415441.03748  20517842.94548
  21926654.883 6  21926650.926 9  -2600604.313 6  -2006018.696 9  21926650.61348
  24184191.820 3                   -676828.021 3   -500070.73046  24184189.30946
  21286490.984 6                  -1952027.479 6  -1501167.87048  21286486.48048
  20193822.820 7                    215817.901 7    166656.45348  20193817.58648
  23344936.867 5                    938894.868 5    719437.59047  23344931.94547
  22001649.375 6                   1441122.201 6   1105306.19548  22001642.76248
  22164920.570 6                    761610.252 6    584555.545 8  22164926.445 8
  19896121.773 8                   -585392.705 8   -450528.733 9  19896128.066 9
  21871694.180 5                    504293.450 5    385123.045 8  21871701.105 8
  20364539.250 7                  -1958028.821 7  -1505797.833 9  20364547.492 9
  22625502.680 4                   -764937.550 4   -584587.908 8  22625510.965 8
  22243315.781 4                   1219315.071 4    938070.021 7  22243322.223 7
  21860639.883 5                   -231418.365 5   -177614.981 8  21860647.590 8
 11  2 28 13 41 40.0000000  0 14G02G04G07G08G10G13G20G23R01R02R11R12
                                R13R18
  22152790.453 6                  -2548398.227 6  -1942075.23847  22152784.00447
  20517339.289 6                   -544680.214 6   -417523.53248  20517334.75848
  21923468.797 6  21923464.898 9  -2617346.918 6  -2019064.893 9  21923464.78548
  24180230.883 2                   -697640.700 2   -516288.38546  24180228.60246
  21284036.320 6                  -1964929.474 6  -1511221.39348  21284031.02348
  20194201.305 6                    217806.486 6    168205.99848  20194196.30548
  23346998.461 5                    949728.623 5    727879.46447  23346994.04747
  22003475.219 6                   1450715.633 6   1112781.58948  22003468.55948
  22166562.672 6                    770391.957 6    591385.748 8  22166569.320 8
  19895411.680 8                   -589179.898 8   -453474.340 9  19895418.469 9
  21873459.844 5                    513726.654 5    392459.964 8  21873466.203 8
  20362326.695 7                  -1969844.552 7  -1514987.840 9  20362335.441 9
  22620868.266 4                   -789687.156 4   -603837.573 8  22620876.582 8
  21860285.813 5                   -233305.423 5   -179082.694 8  21860293.902 8
 11  2 28 13 41 45.0000000  0 14G02G04G07G08G10G13G20G23R01R02R11R12
                                R13R18
  22149663.492 6                  -2564828.593 6  -1954878.11447  22149657.04347
  20516832.758 6                   -547338.230 6   -419594.71848  20516828.89548
  21920284.469 6  21920280.359 9  -2634080.816 6  -2032104.276 9  21920280.04748
  24176270.766 2                   -718453.688 2   -532506.27946  24176268.53146
  21281581.820 6                  -1977827.245 6  -1521271.58148  21281576.46548
  20194581.469 6                    219805.210 6    169763.44048  20194576.74248
  23349060.336 5                    960567.019 5    736324.95447  23349056.09047
  22005301.453 6                   1460313.775 6   1120260.64948  22005295.20348
  22168206.266 6                    779178.507 6    598219.729 8  22168212.930 8
  19894703.039 8                   -592960.276 8   -456414.628 9  19894709.320 9
  21875227.938 6                    523177.741 6    399810.810 8  21875234.250 8
  20360118.727 7                  -1981640.828 7  -1524162.711 9  20360126.727 9
  22616233.633 4                   -814433.439 4   -623084.668 8  22616241.621 8
  21859936.367 5                   -235173.001 5   -180535.264 8  21859943.980 8
 11  2 28 13 41 50.0000000  0 15G02G04G07G08G10G13G20G23R01R02R11R12
                                R13R17R18
  22146538.906 6                  -2581249.639 6  -1967673.73448  22146532.07448
  20516330.141 6                   -549981.041 6   -421654.05848  20516325.51648
  21917101.719 6  21917097.539 9  -2650805.805 6  -2045136.741 9  21917097.39148
  24172310.109 3                   -739265.900 3   -548723.55046  24172307.76646
  21279128.305 6                  -1990720.648 6  -1531318.41348  21279123.14148
  20194963.617 7                    221812.942 7    171327.90848  20194958.34048
  23351123.711 6                    971407.853 6    744772.34647  23351119.16447
  22007128.539 7                   1469914.237 7   1127741.52148  22007122.04748
  22169850.383 6                    787967.405 6    605055.521 8  22169857.230 8
  19893995.633 8                   -596735.578 8   -459350.980 9  19894001.633 9
  21876999.320 6                    532643.600 6    407173.134 8  21877006.082 8
  20357913.711 8                  -1993418.805 8  -1533323.359 9  20357922.320 9
  22611600.094 5                   -839175.611 5   -642328.564 8  22611607.824 8
  22251222.969 3                                    970978.98217  22251228.266 7
  21859589.617 5                   -237020.389 5   -181972.122 8  21859598.105 8
 11  2 28 13 41 55.0000000  0 14G02G04G07G08G10G13G20G23R01R02R11R12
                                R13R18
  22143415.398 6                  -2597663.076 6  -1980463.42947  22143409.18047
  20515829.883 6                   -552610.090 6   -423702.66848  20515825.46148
  21913920.977 6  21913916.480 9  -2667521.314 6  -2058161.802 9  21913916.54348
  24168348.914 2                   -760077.579 2   -564940.40346  24168347.59046
  21276675.508 6                  -2003611.355 6  -1541363.10248  21276670.05148
  20195347.711 7                    223830.018 7    172899.64848  20195342.05948
  23353187.797 6                    982254.085 6    753223.94147  23353183.50047
  22008956.070 6                   1479519.003 6   1135225.74248  22008949.51648
  22171495.000 6                    796761.563 6    611895.419 8  22171502.715 8
  19893289.484 8                   -600505.294 8   -462282.976 9  19893295.395 9
  21878773.484 6                    542126.502 6    414548.733 8  21878780.402 8
  20355712.336 8                  -2005176.854 8  -1542468.497 9  20355721.543 9
  22606968.234 4                   -863913.521 4   -661569.135 8  22606975.828 8
  21859247.719 5                   -238850.080 5   -183395.225 8  21859255.609 8
 11  2 28 13 42  0.0000000  0 15G02G04G07G08G10G13G20G23R01R02R11R12
                                R13R17R18
  22140294.148 6                  -2614065.115 6  -1993244.23848  22140287.77048
  20515332.125 6                   -555223.834 6   -425739.35648  20515328.39148
  21910741.664 6  21910737.375 9  -2684230.114 6  -2071181.638 9  21910737.13748
  24164389.719 2                   -780890.541 2   -581158.26346  24164386.63746
  21274223.164 6                  -2016496.104 6  -1551403.17148  21274218.62948
  20195732.820 6                    225856.160 6    174478.47448  20195727.55148
  23355251.555 6                    993100.978 6    761676.06947  23355246.70347
  22010785.117 6                   1489126.066 6   1142711.77148  22010777.33248
  22173140.469 6                    805557.021 6    618736.324 8  22173147.629 8
  19892583.766 8                   -604269.055 8   -465210.350 9  19892590.129 9
  21880552.258 6                    551624.889 6    421936.356 8  21880557.836 8
  20353514.398 8                  -2016918.435 8  -1551600.834 9  20353523.133 9
  22602335.398 4                   -888649.736 4   -680808.419 8  22602343.805 8
  22256501.914 2                   1289876.67212    992951.22617  22256508.043 7
  21858908.773 5                   -240657.482 5   -184800.977 8  21858916.527 8
 11  2 28 13 42  5.0000000  0 15G02G04G07G08G10G13G20G23R01R02R11R12
                                R13R17R18
  22137175.445 6                  -2630453.544 6  -2006014.43548  22137169.02348
  20514838.344 6                   -557820.361 6   -427762.62848  20514834.34448
  21907563.344 6  21907559.113 9  -2700931.438 6  -2084195.650 9  21907558.99248
  24160427.859 3                   -801704.116 3   -597376.63246  24160425.97346
  21271773.172 6                  -2029372.835 6  -1561436.97448  21271768.10548
  20196120.469 7                    227892.494 7    176065.21848  20196115.22348
  23357315.242 6                   1003948.065 6    770128.33747  23357311.85947
  22012613.250 6                   1498735.561 6   1150199.68248  22012606.20748
  22174786.344 6                    814353.058 6    625577.648 8  22174792.785 8
  19891879.852 8                   -608025.801 8   -468132.266 9  19891885.758 9
  21882332.039 6                    561139.129 6    429336.311 8  21882337.824 8
  20351319.703 8                  -2028643.247 8  -1560720.127 9  20351328.180 9
  22597703.758 4                   -913383.793 4   -700045.982 8  22597711.398 8
  22259144.445 4                   1304019.00114   1003950.80517  22259150.684 7
  21858575.328 5                   -242440.549 5   -186187.816 8  21858582.852 8
 11  2 28 13 42 10.0000000  0 15G02G04G07G08G10G13G20G23R01R02R11R12
                                R13R17R18
  22134058.992 6                  -2646831.088 6  -2018776.14948  22134052.64148
  20514346.820 6                   -560402.457 6   -429774.65648  20514342.61348
  21904385.828 6  21904382.090 9  -2717627.029 6  -2097205.213 9  21904381.79348
  24156467.047 3                   -822521.414 3   -613597.87846  24156464.59846
  21269323.641 6                  -2042244.043 6  -1571466.49248  21269318.69148
  20196509.906 6                    229938.881 6    177659.80348  20196504.59448
  23359380.320 5                   1014797.133 5    778582.14947  23359376.48847
  22014441.977 6                   1508349.688 6   1157691.19548  22014435.59448
  22176431.648 6                    823152.438 6    632421.600 8  22176439.332 8
  19891177.727 8                   -611775.278 8   -471048.523 9  19891183.977 9
  21884115.742 6                    570671.247 6    436750.181 8  21884122.297 8
  20349128.336 7                  -2040350.742 7  -1569825.955 9  20349136.234 9
  22593072.039 4                   -938118.278 4   -719283.914 8  22593079.770 8
  22261788.563 4                   1318167.972 4   1014955.551 7  22261794.461 7
  21858244.875 5                   -244202.720 5   -187558.391 8  21858252.641 8
 11  2 28 13 42 15.0000000  0 15G02G04G07G08G10G13G20G23R01R02R11R12
                                R13R17R18
  22130945.750 6                  -2663192.870 6  -2031525.60047  22130939.22347
  20513858.742 6                   -562969.562 6   -431774.99348  20513854.12548
  21901209.195 6  21901205.301 9  -2734322.347 6  -2110214.529 9  21901204.98848
  24152503.148 3                   -843348.677 3   -629826.86546  24152501.70346
  21266875.602 6                  -2055105.768 6  -1581488.61848  21266871.08248
  20196901.461 7                    231996.167 7    179262.88648  20196896.18448
  23361443.836 6                   1025644.009 6    787034.24747  23361439.91447
  22016273.039 6                   1517969.225 6   1165186.92248  22016266.35548
  22178078.492 6                    831952.724 6    639266.250 8  22178085.316 8
  19890476.406 8                   -615515.024 8   -473957.219 9  19890482.898 9
  21885903.711 6                    580223.691 6    444179.854 8  21885910.121 8
  20346938.922 8                  -2052044.547 8  -1578921.131 9  20346947.160 9
  22588439.297 5                   -962859.563 5   -738527.104 8  22588446.840 8
  22264432.648 4                   1332322.755 4   1025964.809 7  22264439.613 7
  21857919.578 5                   -245939.157 5   -188908.954 8  21857927.094 8
 11  2 28 13 42 20.0000000  0 15G02G04G07G08G10G13G20G23R01R02R11R12
                                R13R17R18
  22127842.258 6                  -2679501.998 6  -2044233.96747  22127835.62947
  20513378.109 7                   -565495.162 7   -433742.98448  20513373.56648
  21898030.320 6  21898026.859 9  -2751025.380 6  -2123229.889 9  21898026.53548
  24148541.672 4                   -864171.616 4   -646052.45946  24148538.45346
  21264435.852 6                  -2067926.643 6  -1591478.86347  21264431.35547
  20197292.586 7                    234050.277 7    180863.51348  20197286.95348
  23363496.320 6                   1036428.879 6    795438.00047  23363492.23847
  22018095.570 6                   1527544.856 6   1172648.49648  22018088.80548
  22179712.250 6                    840689.239 6    646061.344 8  22179718.941 8
  19889774.555 8                   -619261.597 8   -476871.216 9  19889780.879 9
  21887686.977 6                                    451588.07318  21887692.645 8
  20344744.766 8                  -2063764.640 8  -1588036.745 9  20344752.875 9
  22583803.633 5                   -987609.009 5   -757776.717 8  22583811.438 8
  22267092.008 4                   1346544.923 4   1037026.538 7  22267097.500 7
  21857608.406 5                   -247599.806 5   -190200.560 8  21857616.086 8
 11  2 28 13 42 25.0000000  0 14G02G04G07G08G10G13G20G23R02R11R12R13
                                R17R18
  22124740.477 6                  -2695801.990 6  -2056935.29248  22124733.54348
  20512899.672 6                   -568009.232 6   -435702.02148  20512895.21548
  21894853.117 6  21894848.848 9  -2767723.683 6  -2136241.539 9  21894848.78548
  24144577.039 3                   -885003.742 3   -662285.33746  24144574.57446
  21261997.344 6                  -2080743.483 6  -1601466.06448  21261991.81648
  20197685.859 7                    236118.657 7    182475.20748  20197680.64848
  23365550.359 6                   1047224.08216    803849.89257  23365547.34047
  22019920.109 7                   1537135.128 7   1180121.38948  22019913.75448
  19889074.695 8                   -622995.261 8   -479775.192 9  19889080.844 9
  21889473.258 6                    599302.17816    459018.88718  21889480.152 8
  20342554.734 8                  -2075461.776 8  -1597134.528 9  20342563.438 9
  22579167.516 5                  -1012361.804 5   -777028.819 8  22579176.090 8
  22269749.758 5                   1360763.737 5   1048085.551 7  22269755.035 7
  21857300.656 5                   -249243.728 5   -191479.198 8  21857308.734 8
 11  2 28 13 42 30.0000000  0 15G02G04G07G08G10G13G20G23R01R02R11R12
                                R13R17R18
  22121638.703 7                  -2712100.049 7  -2069635.07048  22121632.48848
  20512411.445 7                   -570575.599 7   -437701.85148  20512407.02048
  21891661.766 6  21891657.512 8  -2784495.006 6  -2149310.175 8  21891657.19547
  24140579.719 3                   -906008.803 3   -678652.93146  24140577.44546
  21259557.398 7                  -2093565.050 7  -1611456.87448  21259552.80948
  20198096.547 7                    238274.101 7    184154.73249  20198090.65649
  23367628.055 6                   1058139.962 6    812355.64046  23367624.36346
  22021783.039 7                   1546923.351 7   1187748.54748  22021776.16048
  22183020.477 6                    858371.06416    659814.78318  22183027.297 8
  19888398.445 8                   -626603.452 8   -482581.604 9  19888404.953 9
  21891306.766 7                    609093.761 7    466634.504 8  21891313.000 8
  20340380.734 7                  -2087077.046 7  -1606168.657 9  20340388.563 9
  22574507.438 4                  -1037244.058 4   -796381.794 8  22574516.664 8
  22272366.180 5                   1374774.595 5   1058982.790 8  22272373.141 8
  21856985.961 6                   -250921.045 6   -192783.772 9  21856994.047 9
 11  2 28 13 42 35.0000000  0 15G02G04G07G08G10G13G20G23R01R02R11R12
                                R13R17R18
  22118543.594 6                  -2728365.511 6  -2082309.44648  22118537.28948
  20511922.789 6                   -573143.402 6   -439702.73148  20511918.29348
  21888462.406 6  21888458.461 8  -2801307.443 6  -2162410.742 8  21888458.02747
  24136566.531 3                   -927093.190 3   -695082.29746  24136565.78546
  21257121.352 6                  -2106364.085 6  -1621430.15148  21257116.67648
  20198513.219 7                    240466.712 7    185863.26749  20198507.87149
  23369708.445 5                   1069072.212 5    820874.30547  23369704.95747
  22023657.969 6                   1556776.188 6   1195426.08448  22023651.45748
  22184699.828 5                    867346.051 5    666795.337 8  22184706.258 8
  19887732.023 8                   -630158.314 8   -485346.484 9  19887738.680 9
  21893156.492 6                    618977.845 6    474322.133 8  21893162.945 8
  20338210.234 7                  -2098673.023 7  -1615187.727 9  20338218.449 9
  22569836.180 3                  -1062193.567 3   -815786.896 8  22569844.074 8
  22274973.805 4                   1388728.352 4   1069835.717 8  22274980.762 8
  21856677.000 6                   -252569.376 6   -194065.806 8  21856685.512 8
 11  2 28 13 42 40.0000000  0 13G02G04G07G08G10G13G20G23R01R02R11R12
                                R18
  22115438.047 6                  -2744683.462 6  -2095024.74348  22115432.17248
  20511436.813 6                   -575696.166 6   -441691.88748  20511432.46548
  21885278.313 5  21885275.500 8  -2818033.883 5  -2175444.314 8  21885275.13747
  24132576.422 2                   -948074.66312   -711431.45956  24132573.25046
  21254677.266 6                  -2119209.271 6  -1631439.37248  21254672.59048
  20198927.016 7                    242640.483 7    187557.13348  20198922.00048
  23371794.438 4                   1080037.445 4    829418.63347  23371791.02347
  22025524.344 6                   1566585.599 6   1203069.76248  22025518.29348
  22186378.172 5                    876319.571 5    673774.757 7  22186384.723 7
  19887057.234 8                   -633761.643 8   -488149.068 9  19887063.711 9
  21894995.602 5                    628809.082 5    481968.677 8  21895001.898 8
  20336048.000 7                  -2110218.782 7  -1624167.762 9  20336056.598 9
  21856362.234 5                   -254250.858 5   -195373.658 8  21856370.289 8
 11  2 28 13 42 45.0000000  0 13G02G04G07G10G13G20G23R01R02R11R12R17
                                R18
  22112331.500 6                  -2761010.883 6  -2107747.40648  22112324.96148
  20510952.727 6                   -578242.193 6   -443675.81248  20510948.04348
  21882100.789 5  21882096.582 8  -2834738.852 5  -2188461.175 8  21882096.39547
  21252230.938 6                  -2132065.579 6  -1641457.27548  21252226.20748
  20199342.570 7                    244825.002 7    189259.34748  20199337.45748
  23373886.188 4                   1091028.607 4    837983.13147  23373882.89547
  22027393.758 6                   1576408.265 6   1210723.76048  22027387.18448
  22188061.492 6                    885316.185 6    680772.130 8  22188068.270 8
  19886382.852 8                   -637360.126 8   -490947.896 9  19886389.465 9
  21896839.766 6                    638663.57216    489633.02418  21896846.461 8
  20333894.227 7                  -2121728.880 7  -1633120.047 9  20333902.422 9
  22280208.953 4                   1416733.49214   1091616.57617  22280214.910 7
  21856046.672 5                   -255934.557 5   -196683.188 8  21856054.945 8
 11  2 28 13 42 50.0000000  0 14G02G04G07G08G10G13G20G23R01R02R11R12
                                R17R18
  22109225.844 6                  -2777328.883 6  -2120462.71948  22109219.76248
  20510470.578 6                   -580773.260 6   -445648.07648  20510466.28148
  21878923.055 5  21878918.660 8  -2851434.856 5  -2201471.031 8  21878918.93047
  24124592.805 3                    -25244.20713                
  21249785.594 6                  -2144917.281 6  -1651471.59448  21249780.35548
  20199759.977 7                    247018.276 7    190968.40048  20199754.98048
  23375978.328 5                   1102021.332 5    846548.88747  23375974.48447
  22029263.352 6                   1586232.430 6   1218378.96648  22029256.08648
  22189744.406 5                    894314.111 5    687770.490 8  22189751.145 8
  19885709.594 8                   -640953.738 8   -493742.919 9  19885715.762 9
  21898686.391 6                    648532.382 6    497308.786 8  21898693.145 8
  20331742.414 7                  -2133221.063 7  -1642058.416 9  20331750.398 9
  22282827.531 4                   1430745.593 4   1102514.858 7  22282833.434 7
  21855735.555 5                   -257598.492 5   -197977.363 8  21855743.172 8
 11  2 28 13 42 55.0000000  0 13G02G04G07G10G13G20G23R01R02R11R12R17
                                R18
  22106123.484 6                  -2793634.306 6  -2133168.25548  22106117.25448
  20509992.016 6                   -583288.724 6   -447608.18148  20509987.64548
  21875747.672 5  21875743.223 8  -2868124.099 5  -2214475.638 8  21875743.22347
  21247340.977 6                  -2157761.692 6  -1661480.22248  21247336.18048
  20200179.766 7                    249222.265 7    192685.78548  20200174.46148
  23378071.133 5                   1113015.498 5    855115.74747  23378066.24647
  22031133.109 6                   1596060.995 6   1226037.58148  22031126.91448
  22191428.297 5                    903314.667 5    694770.896 8  22191434.781 8
  19885037.352 8                   -644539.542 8   -496531.885 9  19885043.711 9
  21900536.773 5                    658419.137 5    504998.473 8  21900543.090 8
  20329594.625 7                  -2144695.593 7  -1650983.039 8  20329602.770 8
  22285448.859 4                   1444766.417 4   1113419.936 7  22285453.820 7
  21855428.258 5                   -259239.798 5   -199253.957 8  21855435.855 8
 11  2 28 13 43  0.0000000  0 13G02G04G07G08G10G13G20G23R01R02R11R12
                                R18
  22103022.859 6                  -2809928.932 6  -2145865.35748  22103016.10548
  20509516.805 6                   -585788.364 6   -449555.95548  20509512.16048
  21872573.266 5  21872569.223 8  -2884804.018 5  -2227472.970 8  21872569.15647
  24116611.297 1                                                  24116610.22745
  21244898.125 6                  -2170600.231 6  -1671484.28248  21244893.40648
  20200600.773 7                    251436.214 7    194410.93348  20200595.53148
  23380162.688 5                   1124011.934 5    863684.40247  23380158.63747
  22033004.383 6                   1605892.374 6   1233698.38548  22032997.98848
  22193112.031 5                    912317.487 5    701773.115 7  22193118.379 7
  19884366.547 8                   -648118.986 8   -499315.897 9  19884373.172 9
  21902389.688 6                    668321.161 6    512700.047 8  21902396.473 8
  20327449.867 7                  -2156151.361 7  -1659893.080 9  20327458.383 9
  21855124.891 5                   -260859.782 5   -200513.934 8  21855132.066 8
 11  2 28 13 43  5.0000000  0 12G02G04G07G10G13G20G23R01R02R11R12R18
  22099923.977 6                  -2826212.311 6  -2158553.70148  22099917.66048
  20509043.750 6                   -588272.805 6   -451491.88348  20509039.64848
  21869401.070 5  21869396.957 8  -2901476.074 5  -2240464.189 8  21869396.92247
  21242456.461 6                  -2183432.525 6  -1681483.46248  21242451.53948
  20201024.070 6                    253661.071 6    196144.60348  20201018.56348
  23382255.805 5                   1135011.574 5    872255.54647  23382252.09847
  22034876.328 6                   1615728.971 6   1241363.25348  22034870.45748
  22194797.758 6                    921324.451 6    708778.520 8  22194804.516 8
  19883697.188 8                   -651690.521 8   -502093.767 9  19883704.063 9
  21904246.172 6                    678241.645 6    520415.959 8  21904252.086 8
  20325309.039 7                  -2167588.141 7  -1668788.340 9  20325317.035 9
  21854824.539 5                   -262458.671 5   -201757.527 8  21854832.320 8
 11  2 28 13 43 10.0000000  0 14G02G04G07G08G10G13G20G23R01R02R11R12
                                R17R18
  22096827.406 6                  -2842485.361 6  -2171233.99648  22096821.18848
  20508573.742 6                   -590741.889 6   -453415.84548  20508569.84048
  21866230.797 5  21866225.578 8  -2918138.848 5  -2253448.161 8  21866225.67647
  24108628.063 3                                                
  21240015.094 6                  -2196259.465 6  -1691478.47848  21240010.25448
  20201449.477 6                    255895.731 6    197885.88848  20201444.02048
  23384349.656 5                   1146013.855 5    880828.76847  23384345.63747
  22036748.672 6                   1625568.563 6   1249030.45848  22036741.97748
  22196483.617 6                    930334.140 6    715786.076 8  22196490.793 8
  19883029.086 8                   -655255.866 8   -504866.812 9  19883035.648 9
  21906105.039 6                    688177.816 6    528144.116 8  21906112.195 8
  20323171.164 7                  -2179005.979 7  -1677668.877 9  20323179.570 9
  22293318.172 4                     21928.82314                
  21854529.297 5                   -264037.299 5   -202985.352 8  21854536.750 8
 11  2 28 13 43 15.0000000  0 14G02G04G07G08G10G13G20G23R01R02R11R12
                                R17R18
  22093733.000 6                  -2858748.315 6  -2183906.43648  22093726.26648
  20508106.805 6                   -593195.395 6   -455327.66948  20508102.65248
  21863060.469 5  21863056.840 8  -2934791.994 5  -2266424.632 8  21863056.61347
  24104637.906 2                    -31086.85612                
  21237575.539 6                  -2209081.180 6  -1701469.42548  21237570.70348
  20201876.664 7                    258139.879 7    199634.57948  20201871.43848
  23386443.375 5                   1157018.646 5    889403.90947  23386440.14147
  22038621.523 6                   1635410.609 6   1256699.58248  22038615.41048
  22198167.391 6                    939346.180 6    722795.368 8  22198175.648 8
  19882362.031 8                   -658815.489 8   -507635.414 9  19882369.125 9
  21907968.125 6                    698129.030 6    535883.918 8  21907974.398 8
  20321037.547 7                  -2190405.020 7  -1686534.803 9  20321045.883 9
  22295943.805 4                     35987.325 4     15744.05017  22295951.414 7
  21854237.539 5                   -265595.371 5   -204197.186 8  21854245.004 8
 11  2 28 13 43 20.0000000  0 14G02G04G07G08G10G13G20G23R01R02R11R12
                                R17R18
  22090639.805 6                  -2875000.622 6  -2196570.56848  22090633.52348
  20507643.188 6                   -595634.036 6   -457227.91648  20507638.11748
  21859893.820 6  21859889.418 8  -2951436.769 6  -2279394.568 8  21859889.53147
  24100648.164 3                    -52059.00513    -15034.48656  24100644.69546
  21235136.367 6                  -2221897.226 6  -1711455.95448  21235132.03148
  20202305.797 7                    260394.605 7    201391.50348  20202300.39148
  23388538.938 5                   1168026.858 5    897981.69647  23388534.97747
  22040495.359 6                   1645257.429 6   1264372.42248  22040488.88348
  22199855.352 6                    948362.322 6    729807.934 8  22199862.730 8
  19881696.023 8                   -662367.684 8   -510398.228 9  19881702.441 9
  21909834.391 6                    708097.973 6    543637.538 8  21909840.406 8
  20318907.031 7                  -2201784.689 7  -1695385.642 9  20318915.777 9
  22298574.398 5                     50053.728 5     26684.559 8  22298579.699 8
  21853949.031 5                   -267133.229 5   -205393.304 8  21853957.383 8
 11  2 28 13 43 25.0000000  0 15G02G04G07G08G10G13G20G23R01R02R11R12
                                R13R17R18
  22087549.023 6                  -2891242.146 6  -2209226.29048  22087542.23448
  20507181.695 6                   -598056.749 6   -459115.75048  20507177.47748
  21856727.617 5  21856723.477 8  -2968071.775 5  -2292356.911 8  21856723.45747
  24096658.109 3                    -73029.345 3    -31374.95846  24096653.83246
  21232698.859 6                  -2234707.384 6  -1721437.89348  21232694.01248
  20202736.539 7                    262659.613 7    203156.45149  20202731.69149
  23390633.820 5                   1179038.194 5    906562.02347  23390630.02347
  22042370.266 6                   1655107.741 6   1272047.99648  22042363.24648
  22201543.039 6                    957381.839 6    736823.083 8  22201549.953 8
  19881031.797 8                   -665913.222 8   -513155.866 9  19881038.785 9
  21911701.992 6                    718083.007 6    551403.681 8  21911707.477 8
  20316780.320 7                  -2213144.921 7  -1704221.380 9  20316789.008 9
  22523365.422 2                    -82344.08312    -26231.97018  22523371.379 8
  22301204.438 5                     64130.252 5     37632.974 8  22301211.141 8
  21853664.883 5                   -268649.932 5   -206572.960 8  21853673.160 8
 11  2 28 13 43 30.0000000  0 14G02G04G07G08G10G13G20G23R01R02R11R12
                                R17R18
  22084460.461 6                  -2907473.255 6  -2221873.91048  22084453.88748
  20506723.820 6                   -600464.858 6   -460992.20048  20506719.54348
  21853564.375 6  21853559.969 8  -2984699.064 6  -2305313.238 8  21853559.68447
  24092667.680 4                    -94001.638 4    -47716.97946  24092663.75846
  21230262.086 6                  -2247512.135 6  -1731415.63048  21230257.68448
  20203169.336 7                    264934.956 7    204929.43849  20203164.35249
  23392730.250 5                   1190052.574 5    915144.58447  23392726.33647
  22044245.242 6                   1664962.721 6   1279727.18148  22044238.55948
  22203230.313 6                    966404.895 6    743841.057 8  22203237.176 8
  19880368.805 8                   -669451.548 8   -515907.905 9  19880375.422 9
  21913574.156 6                    728085.719 6    559183.560 8  21913579.781 8
  20314657.500 7                  -2224486.293 7  -1713042.452 9  20314665.258 9
  22303836.156 5                     78213.842 5     48586.852 7  22303842.422 7
  21853384.672 6                   -270146.615 6   -207737.060 8  21853392.531 8
 11  2 28 13 43 35.0000000  0 14G02G04G07G08G10G13G20G23R01R02R11R12
                                R17R18
  22081373.805 6                  -2923693.782 6  -2234513.29148  22081367.19948
  20506268.336 6                   -602858.294 6   -462857.21348  20506263.79348
  21850401.336 5  21850397.195 8  -3001318.404 5  -2318263.378 8  21850397.31647
  24088674.352 2                   -114974.498 2    -64059.45946  24088672.93846
  21227826.734 6                  -2260311.454 6  -1741389.11348  21227821.88348
  20203604.531 7                    267219.968 7    206709.97448  20203598.69148
  23394826.711 5                   1201069.098 5    923728.89647  23394822.77047
  22046121.313 6                   1674821.158 6   1287409.08048  22046115.04348
  22204919.219 6                    975430.787 6    750861.147 8  22204925.836 8
  19879707.164 8                   -672983.307 8   -518654.827 9  19879713.777 9
  21915449.172 6                    738104.707 6    566976.115 8  21915455.199 8
  20312537.539 7                  -2235809.392 7  -1721849.282 9  20312546.227 9
  22306470.352 4                     92305.529 4     59547.030 8  22306475.969 8
  21853108.234 5                   -271622.822 5   -208885.229 8  21853116.508 8
 11  2 28 13 43 40.0000000  0 15G02G04G07G08G10G13G20G23R01R02R11R12
                                R13R17R18
  22078288.914 6                  -2939903.405 6  -2247144.15748  22078282.82848
  20505815.656 6                   -605235.829 6   -464709.84348  20505811.59048
  21847240.242 5  21847236.406 8  -3017929.062 5  -2331206.725 8  21847236.03547
  24084684.555 3                   -135946.41513    -80401.16256  24084681.51246
  21225392.250 6                  -2273104.840 6  -1751357.99048  21225387.45348
  20204041.258 7                    269513.735 7    208497.31849  20204035.89549
  23396922.773 5                   1212085.685 5    932313.24347  23396919.54747
  22047997.523 7                   1684680.191 7   1295091.43848  22047990.70348
  22206608.023 6                    984456.477 6    757881.120 8  22206614.488 8
  19879046.141 8                   -676510.116 8   -521397.911 9  19879052.598 9
  21917326.484 6                    748136.888 6    574778.916 8  21917332.996 8
  20310421.250 7                  -2247115.367 7  -1730642.826 9  20310429.363 9
  22509437.883 4                   -156721.16714    -84080.72118  22509443.285 8
  22309104.758 3                    106408.160 3     70515.726 7  22309111.281 7
  21852835.406 6                   -273077.578 6   -210016.700 8  21852843.344 8
 11  2 28 13 43 45.0000000  0 14G02G04G07G08G10G13G20G23R01R02R11R12
                                R17R18
  22075207.602 6                  -2956096.371 6  -2259762.05148  22075201.38348
  20505366.289 6                   -607595.896 6   -466548.85948  20505362.46148
  21844080.492 5  21844076.066 8  -3034535.351 5  -2344146.692 8  21844075.94547
  24080691.633 2                   -156922.189 2    -96745.91246  24080690.22346
  21222959.625 6                  -2285887.588 6  -1761318.57448  21222954.68848
  20204479.156 7                    271817.710 7    210292.62748  20204474.19148
  23399018.266 5                   1223098.264 5    940894.44347  23399014.74247
  22049873.883 6                   1694540.781 6   1302774.99648  22049867.23848
  22208296.617 6                    993479.845 6    764899.282 8  22208302.594 8
  19878386.320 8                   -680029.133 8   -524134.916 9  19878392.340 9
  21919206.664 6                    758184.496 6    582593.720 8  21919213.855 8
  20308307.320 7                  -2258407.316 7  -1739425.450 9  20308315.652 9
  22311743.750 5                    120522.509 5     81493.542 8  22311749.355 8
  21852568.133 5                   -274505.075 5   -211126.980 8  21852576.367 8
 11  2 28 13 43 50.0000000  0 15G02G04G07G08G10G13G20G23R01R02R11R12
                                R13R17R18
  22072132.422 6                  -2972258.652 6  -2272356.03048  22072125.71548
  20504922.055 6                   -609932.539 6   -468369.63148  20504917.36348
  21840919.594 5  21840915.602 8  -3051146.097 5  -2357090.119 8  21840915.50047
  24076699.328 3                   -177907.312 3   -113097.94446  24076696.72346
  21220531.484 6                  -2298648.061 6  -1771261.78648  21220526.38748
  20204919.664 7                    274130.960 7    212095.15648  20204914.46548
  23401109.891 5                   1234090.014 5    949459.46647  23401106.23847
  22051749.211 6                   1704395.390 6   1310453.91548  22051742.46948
  22209980.039 5                   1002485.868 5    771903.974 8  22209987.215 8
  19877728.727 8                   -683539.762 8   -526865.425 9  19877734.781 9
  21921088.844 6                    768242.563 6    590416.660 8  21921095.410 8
  20306193.781 7                  -2269697.230 7  -1748206.471 9  20306201.988 9
  22500148.727 2                   -206312.85612   -122652.06518  22500156.215 8
  22314385.094 4                    134658.823 4     92488.473 7  22314391.000 7
  21852309.227 5                   -275889.038 5   -212203.411 8  21852316.801 8
 11  2 28 13 43 55.0000000  0 15G02G04G07G08G10G13G20G23R01R02R11R12
                                R13R17R18
  22069059.961 6                  -2988404.349 6  -2284937.09348  22069053.35948
  20504480.930 6                   -612251.144 6   -470176.33648  20504476.50448
  21837759.859 5  21837755.957 8  -3067751.375 5  -2370029.301 8  21837755.84047
  24072705.531 3                   -198894.658 3   -129451.69646  24072703.30546
  21218105.172 6                  -2311397.809 6  -1781196.65748  21218100.06348
  20205361.633 7                    276454.082 7    213905.38148  20205355.96948
  23403201.102 5                   1245077.535 5    958021.14747  23403196.94947
  22053624.133 6                   1714250.595 6   1318133.28848  22053617.88348
  22211665.219 6                   1011488.880 6    778906.306 8  22211671.289 8
  19877072.289 8                   -687043.267 8   -529590.360 9  19877078.961 9
  21922974.047 6                    778314.765 6    598250.560 8  21922980.262 8
  20304082.586 7                  -2280972.961 7  -1756976.482 9  20304090.633 9
  22495505.039 3                   -231114.181 3   -141941.936 8  22495511.938 8
  22317029.805 4                    148808.549 4    103493.781 7  22317035.176 7
  21852055.711 5                   -277245.545 5   -213258.469 8  21852063.207 8
 11  2 28 13 44  0.0000000  0 12G02G04G07G10G13G20G23R01R02R11R12R18
  22065995.656 6                  -3004507.042 6  -2297484.64048  22065989.21148
  20504044.906 6                   -614540.026 6   -471959.88248  20504040.62148
  21834598.250 5  21834593.371 9  -3084366.920 5  -2382976.468 9  21834593.25847
  21215684.852 6                  -2324114.988 6  -1791106.14748  21215680.48848
  20205805.313 7                    278785.862 7    215722.35648  20205799.94148
  23405285.352 5                   1256030.107 5    966555.62347  23405281.34447
  22055497.070 6                   1724092.458 6   1325802.27048  22055490.69548
  22213342.953 6                   1020461.334 6    785884.862 8  22213349.965 8
  19876417.250 8                   -690538.070 8   -532308.547 9  19876422.918 9
  21924859.289 6                    788392.016 6    606088.453 8  21924866.520 8
  20301970.836 7                  -2292256.272 7  -1765752.390 9  20301979.078 9
  21851811.625 6                   -278543.794 6   -214268.229 8  21851819.438 8
 11  2 28 13 44  5.0000000  0 13G02G04G07G10G13G20G23R01R02R11R12R17
                                R18
  22062946.031 6                  -3020531.453 6  -2309971.20148  22062939.59048
  20503617.828 7                   -616784.940 7   -473709.16848  20503613.67248
  21831429.039 6  21831425.355 8  -3101017.045 6  -2395950.591 8  21831425.15247
  21213276.844 6                  -2336770.152 6  -1800967.30648  21213272.37948
  20206250.289 7                    281124.830 7    217544.92548  20206245.14548
  23407354.359 5                   1266905.414 5    975029.85747  23407351.00447
  22057364.164 7                   1733904.028 7   1333447.64148  22057357.39548
  22215008.945 6                   1029366.746 6    792811.275 8  22215016.910 8
  19875764.273 8                   -694021.294 8   -535017.717 9  19875770.711 9
  21926744.313 6                    798463.396 6    613921.690 8  21926749.723 8
  20299850.797 7                  -2303577.656 7  -1774557.908 9  20299859.391 9
  22322340.617 3                    177228.45413    125598.12117  22322345.844 7
  21851586.633 6                   -279743.323 6   -215201.195 8  21851594.277 8
 11  2 28 13 44 10.0000000  0 12G02G04G07G10G13G20G23R01R02R11R12R18
  22059915.930 6                  -3036451.732 6  -2322376.59947  22059910.41447
  20503200.922 7                   -618974.804 7   -475415.55648  20503196.69548
  21828252.383 6  21828247.137 9  -3117717.582 6  -2408964.043 9  21828247.15247
  21210884.719 6                  -2349341.996 6  -1810763.53448  21210880.20748
  20206696.422 7                    283469.470 7    219371.93848  20206690.98848
  23409403.922 5                   1277672.569 5    983419.87547  23409399.80147
  22059223.203 7                   1743671.475 7   1341058.66947  22059216.30147
  22216657.555 6                   1038177.536 6    799664.110 8  22216664.816 8
  19875113.914 9                   -697491.822 9   -537717.013 9  19875120.809 9
  21928626.305 6                    808519.980 6    621743.597 7  21928632.426 7
  20297721.000 8                  -2314958.845 8  -1783409.937 9  20297728.957 9
  21851387.039 6                   -280813.970 6   -216033.897 8  21851394.258 8
 11  2 28 13 44 15.0000000  0 14G02G04G07G10G13G20G23R01R02R11R12R13
                                R17R18
  22056893.672 6                  -3052333.378 6  -2334751.93147  22056887.60547
  20502789.797 7                   -621136.992 7   -477100.38448  20502785.16448
  21825072.609 6  21825067.828 9  -3134425.438 6  -2421983.135 9  21825068.66047
  21208497.594 6                  -2361884.896 6  -1820537.22248  21208493.35248
  20207144.594 7                    285823.796 7    221206.48148  20207139.12948
  23411446.797 6                   1288411.009 6    991787.49947  23411442.85247
  22061080.125 7                   1753429.347 7   1348662.19947  22061073.32047
  22218300.039 6                   1046963.671 6    806497.785 8  22218308.551 8
  19874464.922 9                   -700953.187 9   -540409.189 9  19874471.586 9
  21930510.609 6                    818585.018 6    629571.935 7  21930515.461 7
  20295589.500 8                  -2326342.656 8  -1792263.994 9  20295597.504 9
  22476870.773 2                    -35000.68112                
  22327695.297 3                    205881.39513    147883.83417  22327700.402 7
  21851195.961 6                   -281831.662 6   -216825.431 8  21851202.707 8
 11  2 28 13 44 20.0000000  0 14G02G04G07G10G13G20G23R01R02R11R12R13
                                R17R18
  22053873.406 6                  -3068205.099 6  -2347119.48447  22053867.45747
  20502381.336 7                   -623284.473 7   -478773.76148  20502377.06348
  21821894.625 6  21821890.113 9  -3151124.147 6  -2434995.124 9  21821890.54347
  21206111.344 6                  -2374423.040 6  -1830307.19148  21206107.69148
  20207593.953 7                    288187.807 7    223048.57248  20207588.99248
  23413491.086 6                   1299152.450 6   1000157.43047  23413487.60247
  22062937.289 7                   1763190.718 7   1356268.45047  22062930.12147
  22219944.992 6                   1055753.003 6    813333.920 8  22219952.730 8
  19873817.133 9                   -704408.621 9   -543096.744 9  19873823.848 9
  21932395.383 6                    828666.610 6    637413.171 7  21932403.523 7
  20293462.203 8                  -2337706.910 8  -1801102.859 9  20293470.176 9
  22472202.297 2                    -59934.162 2                
  22330375.266 2                    220229.551 2    159043.529 7  22330380.910 7
  21851010.109 7                   -282829.429 7   -217601.502 8  21851016.207 8
 11  2 28 13 44 25.0000000  0 14G02G04G07G10G13G20G23R01R02R11R12R13
                                R17R18
  22050854.828 6                  -3084067.168 6  -2359479.52147  22050848.72747
  20501975.734 7                   -625417.663 7   -480435.98448  20501970.50448
  21818718.508 6  21818713.988 9  -3167814.081 6  -2448000.258 9  21818714.77347
  21203727.055 6                  -2386956.716 6  -1840073.70548  21203722.29748
  20208046.023 7                    290561.146 7    224897.92148  20208040.90648
  23415535.664 6                   1309896.536 6   1008529.40947  23415531.70347
  22064795.648 7                   1772955.127 7   1363877.10247  22064788.52347
  22221590.531 7                   1064545.036 7    820172.150 8  22221597.316 8
  19873171.492 9                   -707858.372 9   -545779.897 9  19873177.715 9
  21934286.039 6                    838764.393 6    645267.005 7  21934293.836 7
  20291338.055 9                  -2349051.853 9  -1809926.720 9  20291345.340 9
  22467532.969 3                    -84864.125 3                
  22333058.914 2                    234585.230 2    170209.020 7  22333062.988 7
  21850825.563 6                   -283807.668 6   -218362.360 8  21850831.766 8
 11  2 28 13 44 30.0000000  0 14G02G04G07G10G13G20G23R01R02R11R12R13
                                R17R18
  22047839.289 6                  -3099919.076 6  -2371831.67347  22047832.12947
  20501572.414 7                   -627536.057 7   -482086.68148  20501567.64148
  21815545.203 6  21815540.031 9  -3184494.675 6  -2460998.101 9  21815539.80547
  21201342.781 6                  -2399485.482 6  -1849836.38948  21201337.84848
  20208499.406 7                    292944.290 7    226754.91348  20208494.41048
  23417581.273 6                   1320643.715 6   1016903.83747  23417577.23047
  22066654.000 7                   1782723.063 7   1371488.45447  22066647.19947
  22223235.047 6                   1073340.324 6    827012.929 8  22223242.598 8
  19872525.922 9                   -711302.026 9   -548458.297 9  19872531.922 9
  21936178.672 6                    848878.878 6    653133.788 7  21936186.469 7
  20289218.398 8                  -2360377.146 8  -1818735.261 9  20289225.262 9
  22462864.320 3                   -109789.879 3                
  22335741.984 1                    248948.991 1    181380.836 7  22335748.473 7
  21850646.563 7                   -284765.754 7   -219107.527 8  21850652.738 8
 11  2 28 13 44 35.0000000  0 14G02G04G07G10G13G20G23R01R02R11R12R13
                                R17R18
  22044824.063 6                  -3115759.717 6  -2384175.00047  22044817.55947
  20501171.953 7                   -629638.431 7   -483724.89848  20501167.53148
  21812372.320 6  21812367.902 9  -3201164.814 6  -2473987.830 9  21812367.46147
  21198959.547 7                  -2412008.153 7  -1859594.31148  21198955.00448
  20208955.195 7                    295338.373 7    228620.42248  20208950.14848
  23419626.852 6                   1331395.166 6   1025281.58747  23419623.09047
  22068513.945 7                   1792495.707 7   1379103.50947  22068506.81647
  22224881.727 7                   1082140.097 7    833857.147 8  22224888.813 8
  19871882.570 9                   -714738.401 9   -551131.034 9  19871888.297 9
  21938074.898 6                    859011.089 6    661014.413 7  21938082.059 7
  20287101.773 8                  -2371681.430 8  -1827527.479 9  20287109.320 9
  22458197.242 3                   -134710.228 3                
  22338428.578 1                    263322.111 1    192559.896 7  22338435.461 7
  21850470.945 6                   -285702.726 6   -219836.304 8  21850477.086 8
 11  2 28 13 44 40.0000000  0 14G02G04G07G10G13G20G23R01R02R11R12R13
                                R17R18
  22041811.719 6                  -3131589.789 6  -2396510.12947  22041805.84447
  20500775.227 7                   -631725.576 7   -485351.26248  20500770.93848
  21809202.430 6  21809197.324 9  -3217825.162 6  -2486969.905 9  21809197.06347
  21196577.641 6                  -2424525.496 6  -1869348.09048  21196573.01248
  20209412.547 7                    297742.654 7    230493.88948  20209407.34448
  23421674.117 6                   1342150.190 6   1033662.09747  23421670.32447
  22070374.414 7                   1802272.311 7   1386721.62947  22070367.62147
  22226528.602 7                   1090943.542 7    840704.257 8  22226535.348 8
  19871239.547 9                   -718168.177 9   -553798.622 9  19871245.535 9
  21939973.648 6                    869160.389 6    668908.300 7  21939981.465 7
  20284989.414 8                  -2382965.574 8  -1836304.034 9  20284997.711 9
  22453531.469 1                   -159625.731 1                
  22341115.805 2                    277703.732 2    203745.591 7  22341123.262 7
  21850299.406 6                   -286619.312 6   -220549.225 8  21850306.430 8
 11  2 28 13 44 45.0000000  0 14G02G04G07G10G13G20G23R01R02R11R12R13
                                R17R18
  22038801.891 6                  -3147409.446 6  -2408837.12847  22038795.14847
  20500380.695 7                   -633797.672 7   -486965.87648  20500376.50448
  21806033.508 6  21806029.023 9  -3234475.924 6  -2499944.502 9  21806028.59447
  21194196.828 7                  -2437037.589 7  -1879097.76648  21194191.94948
  20209872.055 7                    300156.980 7    232375.17849  20209866.83649
  23423721.734 6                   1352908.497 6   1042045.16447  23423717.75047
  22072235.531 7                   1812052.649 7   1394342.68347  22072228.34447
  22228176.055 7                   1099750.510 7    847554.131 8  22228182.922 8
  19870598.109 9                   -721591.534 9   -556461.239 9  19870604.266 9
  21941875.891 6                    879326.541 6    676815.327 7  21941883.742 7
  20282881.156 8                  -2394229.669 8  -1845064.996 9  20282888.828 9
  22448867.242 3                   -184536.991 3                
  22343806.367 2                    292093.691 2    214937.850 7  22343812.309 7
  21850132.156 7                   -287515.546 7   -221246.278 9  21850138.367 9
 11  2 28 13 44 50.0000000  0 13G02G04G07G10G13G20G23R01R02R11R12R17
                                R18
  22035793.109 6                  -3163218.271 6  -2421155.71847  22035786.95747
  20499989.211 6                   -635854.292 6   -488568.44148  20499984.58648
  21802867.094 6  21802862.227 9  -3251116.648 6  -2512911.334 9  21802861.69947
  21191816.641 7                  -2449544.062 7  -1888843.08148  21191811.98448
  20210333.727 7                    302581.751 7    234264.61048  20210327.68048
  23425768.367 6                   1363670.644 6   1050431.25847  23425765.21147
  22074097.219 7                   1821837.180 7   1401966.92047  22074090.85947
  22229825.016 7                   1108561.431 7    854407.038 8  22229830.652 8
  19869957.906 9                   -725008.063 9   -559118.539 9  19869963.406 9
  21943781.992 6                    889510.079 6    684735.821 7  21943789.691 7
  20280776.102 8                  -2405473.328 8  -1853810.052 9  20280783.992 9
  22346496.766 2                    306492.396 2    226136.743 7  22346502.398 7
  21849967.469 7                   -288391.287 7   -221927.437 9  21849974.047 9
 11  2 28 13 44 55.0000000  0 14G02G04G07G10G13G20G23R01R02R11R12R13
                                R17R18
  22032786.523 6                  -3179016.122 6  -2433465.73247  22032780.51647
  20499600.891 7                   -637895.297 7   -490158.82648  20499596.37548
  21799701.844 6  21799697.309 9  -3267747.209 6  -2525870.207 9  21799696.98047
  21189437.930 6                  -2462044.782 6  -1898583.90448  21189433.70348
  20210797.172 7                    305017.093 7    236162.27548  20210790.85548
  23427817.641 6                   1374436.612 6   1058820.35247  23427814.24247
  22075960.617 7                   1831625.979 7   1409594.56947  22075953.28547
  22231473.141 7                   1117376.347 7    861263.100 8  22231479.035 8
  19869318.727 9                   -728417.684 9   -561770.467 9  19869324.477 9
  21945691.047 6                    899710.917 6    692669.822 7  21945698.027 7
  20278675.250 8                  -2416696.333 8  -1862539.043 9  20278683.820 9
  22439539.508 2                   -234344.28812                
  22349187.914 1                    320899.899 1    237342.556 7  22349195.426 7
  21849807.023 6                   -289246.196 6   -222592.375 8  21849814.078 8
 11  2 28 13 45  0.0000000  0 14G02G04G07G10G13G20G23R01R02R11R12R13
                                R17R18
  22029782.852 6                  -3194803.660 6  -2445767.70747  22029776.34447
  20499215.563 7                   -639921.444 7   -491737.66248  20499211.06348
  21796539.602 6  21796534.137 9  -3284368.286 6  -2538821.677 9  21796534.20747
  21187060.461 7                  -2474540.445 7  -1908320.78748  21187055.72748
  20211262.188 7                    307462.234 7    238067.58548  20211256.86748
  23429865.859 6                   1385205.707 6   1067211.82947  23429863.28947
  22077823.563 7                   1841418.301 7   1417224.94947  22077817.00847
  22233123.086 7                   1126194.703 7    868121.821 8  22233129.449 8
  19868680.867 9                   -731821.029 9   -564417.520 9  19868686.902 9
  21947604.641 6                    909928.418 6    700616.771 7  21947610.750 7
  20276578.039 8                  -2427899.504 8  -1871252.634 9  20276586.762 9
  22434876.953 2                   -259241.109 2                
  22351882.883 1                    335315.337 1    248554.574 7  22351891.184 7
  21849650.086 6                   -290081.006 6   -223241.646 9  21849659.039 9
 11  2 28 13 45  5.0000000  0 13G02G04G07G10G13G20G23R01R02R11R12R13
                                R18
  22026780.586 6                  -3210580.917 6  -2458061.68647  22026774.27347
  20498832.492 7                   -641932.609 7   -493304.80148  20498828.78948
  21793378.656 6  21793373.074 9  -3300979.878 6  -2551765.776 9  21793372.96547
  21184683.523 6                  -2487030.952 6  -1918053.64648  21184678.97748
  20211729.477 7                    309917.276 7    239980.60548  20211723.58248
  23431915.922 6                   1395978.072 6   1075605.88847  23431913.00847
  22079687.727 7                   1851214.297 7   1424858.15747  22079680.92647
  22234772.656 7                   1135016.375 7    874983.148 8  22234779.785 8
  19868044.617 9                   -735218.067 9   -567059.666 9  19868051.188 9
  21949518.109 6                    920162.664 6    708576.737 7  21949525.863 7
  20274484.859 8                  -2439082.747 8  -1879950.699 9  20274492.375 9
  22430213.859 1                   -284133.31011     -6968.65016  22430215.676 6
  21849497.883 6                   -290895.882 6   -223875.463 9  21849506.535 9
 11  2 28 13 45 10.0000000  0 14G02G04G07G10G13G20G23R01R02R11R12R13
                                R17R18
  22023780.898 6                  -3226348.559 6  -2470348.16047  22023774.26247
  20498452.828 7                   -643929.722 7   -494860.98048  20498448.66448
  21790217.977 6  21790213.754 9  -3317582.670 6  -2564703.002 9  21790213.51247
  21182307.281 7                  -2499517.152 7  -1927783.15248  21182302.93448
  20212198.367 7                    312381.386 7    241900.69048  20212193.08648
  23433967.328 6                   1406752.836 6   1084001.75447  23433963.15247
  22081552.531 7                   1861013.104 7   1432493.59247  22081545.80947
  22236423.648 7                   1143840.667 7    881846.479 8  22236430.398 8
  19867408.578 9                   -738609.627 9   -569697.555 9  19867415.391 9
  21951437.492 6                    930412.816 6    716549.042 7  21951444.113 7
  20272394.398 8                  -2450246.803 8  -1888633.833 9  20272402.188 9
  22425552.383 2                   -309021.784 2    -26326.235 6  22425555.383 6
  22357271.313 1                    364169.36911    270995.57317  22357284.355 7
  21849348.344 6                   -291691.332 6   -224494.151 9  21849358.117 9
 11  2 28 13 45 15.0000000  0 13G02G04G07G10G13G20G23R01R02R11R12R13
                                R18
  22020781.617 6                  -3242106.307 6  -2482626.93847  22020775.37147
  20498075.078 7                   -645912.210 7   -496405.78248  20498071.51248
  21787060.625 6  21787056.238 9  -3334176.380 6  -2577633.160 9  21787056.13348
  21179932.383 6                  -2511998.688 6  -1937509.02148  21179927.24648
  20212669.344 7                    314854.905 7    243828.09749  20212663.91449
  23436018.406 6                   1417530.323 6   1092399.80747  23436014.04347
  22083417.398 7                   1870815.106 7   1440131.51647  22083411.16447
  22238075.055 7                   1152668.025 7    888712.188 8  22238081.879 8
  19866774.297 9                   -741995.386 9   -572330.932 9  19866780.430 9
  21953358.938 6                    940679.093 6    724533.946 7  21953366.016 7
  20270308.102 8                  -2461391.368 8  -1897301.826 9  20270315.848 9
  22420891.031 1                   -333906.266 1    -45680.842 6  22420895.801 6
  21849202.680 6                   -292467.128 6   -225097.568 9  21849211.586 9
 11  2 28 13 45 20.0000000  0 13G02G04G07G10G13G20G23R01R02R11R12R13
                                R18
  22017785.219 6                  -3257853.440 6  -2494897.41947  22017779.04747
  20497700.797 7                   -647879.640 7   -497938.85048  20497697.24248
  21783905.000 6  21783900.801 9  -3350760.286 6  -2590555.692 9  21783900.97348
  21177558.742 7                  -2524474.911 7  -1947230.76448  21177553.43448
  20213141.578 7                    317338.477 7    245763.35149  20213135.75049
  23438069.680 6                   1428311.249 6   1100800.51647  23438066.10947
  22085283.445 7                   1880620.884 7   1447772.36647  22085276.79347
  22239726.766 7                   1161498.872 7    895580.591 8  22239734.199 8
  19866141.156 9                   -745374.584 9   -574959.195 9  19866147.582 9
  21955282.008 6                    950962.219 6    732531.938 8  21955290.895 8
  20268226.055 8                  -2472515.676 8  -1905954.077 9  20268233.238 9
  22416233.297 3                   -358785.940 3    -65031.709 6  22416237.441 6
  21849061.766 6                   -293222.410 6   -225684.985 9  21849071.086 9
 11  2 28 13 45 25.0000000  0 12G02G04G07G10G13G20G23R01R02R11R12R18
  22014788.281 6                  -3273602.088 6  -2507169.07548  22014782.33648
  20497328.836 7                   -649837.208 7   -499464.22348  20497324.25448
  21780752.289 6  21780747.332 9  -3367327.322 6  -2603465.049 9  21780747.62547
  21175182.508 7                  -2536955.888 7  -1956956.16648  21175177.68048
  20213616.750 7                    319832.272 7    247706.56349  20213611.46949
  23440123.570 6                   1439109.151 6   1109214.47347  23440120.77047
  22087150.695 7                   1890436.178 7   1455420.65147  22087145.34447
  22241382.070 7                   1170345.332 7    902461.126 8  22241389.188 8
  19865508.203 9                   -748748.375 9   -577583.250 9  19865514.645 9
  21957209.945 8                    961265.508 8    740545.528 8  21957217.316 8
  20266148.766 8                  -2483610.404 8  -1914583.303 9  20266156.836 9
  21848921.234 6                   -293971.697 6   -226267.790 9  21848929.848 9
 11  2 28 13 45 30.0000000  0 12G02G04G07G10G13G20G23R01R02R11R12R18
  22011776.000 6                  -3289432.848 6  -2519504.72248  22011769.23848
  20496951.344 7                   -651818.746 7   -501008.28348  20496947.30548
  21777613.023 6  21777608.652 9  -3383825.199 6  -2616320.513 9  21777608.48447
  21172794.367 7                  -2549508.226 7  -1966737.22848  21172789.44148
  20214093.445 7                    322340.854 7    249661.30049  20214088.27349
  23442200.570 6                   1450022.024 6   1117718.02047  23442197.05547
  22089029.078 7                   1900303.467 7   1463109.44648  22089022.88748
  22243056.367 6                   1179294.10416    909421.24918  22243062.895 8
  19864876.625 8                   -752120.278 8   -580205.857 9  19864883.664 9
  21959147.461 7                    971616.423 7    748596.211 8  21959153.871 8
  20264090.086 8                  -2494606.639 8  -1923135.923 9  20264098.668 9
  21848764.258 6                   -294808.584 6   -226918.710 8  21848772.922 8
 11  2 28 13 45 35.0000000  0 12G02G04G07G10G13G20G23R01R02R11R12R18
  22008753.047 6                  -3305318.639 6  -2531883.26848  22008746.88348
  20496572.086 7                   -653812.746 7   -502562.05748  20496567.79748
  21774482.711 5  21774479.137 9  -3400272.117 5  -2629136.294 9  21774478.85547
  21170396.539 7                  -2562109.454 7  -1976556.35648  21170391.08648
  20214573.352 7                    324861.462 7    251625.40949  20214568.05949
  23444292.695 5                   1461014.926 5   1126283.86847  23444289.18447
  22090913.695 6                   1910206.491 6   1470826.06848  22090907.03148
  22244743.500 6                   1188313.670 6    916436.498 8  22244750.246 8
  19864245.367 8                   -755490.471 8   -582827.123 9  19864251.773 9
  21961090.703 7                    982002.972 7    756674.621 8  21961097.563 8
  20262045.500 7                  -2505529.379 7  -1931631.393 9  20262053.527 9
  21848597.406 6                   -295701.356 6   -227613.091 8  21848605.008 8
 11  2 28 13 45 40.0000000  0 13G02G04G07G10G13G20G23R01R02R11R12R17
                                R18
  22005730.766 6                  -3321198.496 6  -2544257.16648  22005725.03148
  20496194.711 6                   -655794.354 6   -504106.16548  20496190.81348
  21771355.484 6  21771351.527 9  -3416707.764 6  -2641943.288 9  21771350.94547
  21167998.594 6                  -2574709.188 6  -1986374.32448  21167993.72748
  20215054.953 7                    327392.628 7    253597.74649  20215049.81649
  23446386.008 5                   1472016.860 5   1134856.81247  23446382.39847
  22092799.406 6                   1920116.874 6   1478548.45548  22092793.34448
  22246432.703 6                   1197342.673 6    923459.024 8  22246439.355 8
  19863615.742 8                   -758853.481 8   -585442.797 9  19863621.719 9
  21963038.023 7                    992408.993 7    764768.192 8  21963044.500 8
  20260005.641 7                  -2516428.432 7  -1940108.419 9  20260013.582 9
  22373425.797 5                     24100.67515                
  21848432.906 6                   -296579.451 6   -228296.059 8  21848440.977 8
 11  2 28 13 45 45.0000000  0 13G02G04G07G10G13G20G23R01R02R11R12R17
                                R18
  22002707.906 6                  -3337082.555 6  -2556634.37248  22002702.35548
  20495819.734 6                   -657766.278 6   -505642.73648  20495815.32848
  21768231.906 5  21768227.492 9  -3433122.425 5  -2654733.924 9  21768227.25047
  21165599.859 6                  -2587315.501 6  -1996197.42848  21165595.14548
  20215538.539 6                    329935.669 6    255579.33449  20215533.73849
  23448483.906 5                   1483042.366 5   1143448.07347  23448480.38747
  22094687.945 6                   1930040.359 6   1486281.02748  22094681.50848
  22248125.984 5                   1206393.259 5    930498.404 8  22248133.590 8
  19862986.188 8                   -762209.396 8   -588052.955 9  19862992.676 9
  21964990.445 6                   1002837.699 6    772879.408 8  21964996.805 8
  20257970.938 7                  -2527293.103 7  -1948558.718 9  20257979.871 9
  22376110.031 5                     38455.576 5     16079.81917  22376114.664 7
  21848268.867 6                   -297454.976 6   -228977.042 8  21848276.918 8
 11  2 28 13 45 50.0000000  0 15G02G04G07G08G10G13G20G23R01R02R11R12
                                R13R17R18
  21999682.313 6                  -3352986.354 6  -2569026.93848  21999675.51648
  20495444.766 6                   -659735.371 6   -507177.09448  20495440.67248
  21765114.219 6  21765109.770 9  -3449507.280 6  -2667501.344 9  21765109.44147
  23980555.883 3                    -33557.95413                
  21163197.031 6                  -2599941.321 6  -2006035.73248  21163192.46148
  20216024.828 7                    332490.283 7    257569.94749  20216019.40649
  23450590.023 5                   1494108.019 5   1152070.65547  23450586.35547
  22096579.602 6                   1939983.113 6   1494028.60848  22096573.55148
  22249825.813 6                   1215479.747 6    937565.647 8  22249832.793 8
  19862357.938 8                   -765560.182 8   -590659.122 9  19862364.648 9
  21966947.250 6                   1013292.181 6    781010.645 8  21966953.445 8
  20255945.859 7                  -2538112.046 7  -1956973.459 9  20255954.184 9
  22388404.547 2                    -48428.75912                
  22378788.578 4                     52798.486 4     27235.378 7  22378794.805 7
  21848101.586 6                   -298345.867 6   -229669.938 8  21848110.484 8
 11  2 28 13 45 55.0000000  0 15G02G04G07G08G10G13G20G23R01R02R11R12
                                R13R17R18
  21996651.836 6                  -3368909.444 6  -2581434.53448  21996645.65648
  20495070.227 6                   -661702.272 6   -508709.75248  20495065.80948
  21762001.289 5  21761997.047 8  -3465863.599 5  -2680246.510 8  21761997.04747
  23976569.367 3                    -54512.14313     -1306.31856  23976566.80946
  21160790.625 6                  -2612586.214 6  -2015888.88648  21160785.70748
  20216513.414 7                    335057.882 7    259570.66948  20216507.81348
  23452703.469 5                   1505215.199 5   1160725.59747  23452699.70347
  22098475.984 6                   1949948.090 6   1501793.52748  22098469.37148
  22251532.758 6                   1224604.735 6    944662.858 8  22251539.988 8
  19861731.516 8                   -768903.696 8   -593259.636 9  19861738.391 9
  21968908.500 6                   1023775.755 6    789164.564 8  21968915.574 8
  20253929.219 7                  -2548884.479 7  -1965351.985 9  20253937.695 9
  22383785.500 3                    -73100.285 3    -18421.57118  22383792.973 8
  22381466.711 5                     67126.635 5     38379.533 7  22381472.727 7
  21847931.852 5                   -299251.950 5   -230374.685 8  21847940.316 8
 11  2 28 13 46  0.0000000  0 15G02G04G07G08G10G13G20G23R01R02R11R12
                                R13R17R18
  21993624.133 6                  -3384822.187 6  -2593834.08148  21993617.89148
  20494698.516 6                   -663658.385 6   -510233.98248  20494694.39548
  21758890.188 5  21758885.340 8  -3482215.154 5  -2692987.990 8  21758885.17647
  23972579.930 1                                                  23972577.29346
  21158385.773 6                  -2625225.597 6  -2025737.76248  21158381.42248
  20217005.195 7                    337640.994 7    261583.47748  20216999.93048
  23454818.617 5                   1516333.171 5   1169388.95447  23454815.44547
  22100375.367 6                   1959929.695 6   1509571.38248  22100368.91848
  22253242.898 5                   1233744.704 5    951771.678 8  22253249.266 8
  19861107.867 8                   -772232.375 8   -595848.615 9  19861114.324 9
  21970876.430 6                   1034290.220 6    797342.464 8  21970882.984 8
  20251917.148 7                  -2559632.639 7  -1973711.676 9  20251924.762 9
  22379165.531 3                    -97775.10413    -37614.12618  22379172.008 8
  22384141.758 4                     81448.823 4     49518.978 7  22384149.527 7
  21847765.633 5                   -300141.690 5   -231066.695 8  21847774.180 8
 11  2 28 13 46  5.0000000  0 15G02G04G07G08G10G13G20G23R01R02R11R12
                                R13R17R18
  21990601.086 6                  -3400707.200 6  -2606212.02048  21990594.90248
  20494329.180 6                   -665599.022 6   -511746.17448  20494324.60248
  21755776.539 5  21755771.992 8  -3498576.461 5  -2705737.067 8  21755771.70347
  23968586.313 3                                                  23968583.57046
  21155984.258 6                  -2637845.053 6  -2035571.10048  21155979.57048
  20217500.164 7                    340241.772 7    263610.04748  20217494.48448
  23456934.031 5                   1527444.571 5   1178047.16347  23456930.27747
  22102277.867 6                   1969925.944 6   1517360.67447  22102271.47747
  22254953.242 5                   1242887.185 5    958882.508 8  22254958.965 8
  19860487.586 8                   -775540.676 8   -598421.739 9  19860494.164 9
  21972849.773 6                   1044838.045 6    805546.317 8  21972856.023 8
  20249907.102 7                  -2570369.145 7  -1982062.275 9  20249915.527 9
  22374537.844 2                   -122471.288 2    -56822.18618  22374548.398 8
  22386819.430 3                     95769.323 3     60657.132 8  22386825.461 8
  21847605.836 5                   -300996.456 5   -231731.527 8  21847613.477 8
 11  2 28 13 46 10.0000000  0 15G02G04G07G08G10G13G20G23R01R02R11R12
                                R13R17R18
  21987582.477 6                  -3416574.339 6  -2618576.02348  21987575.41048
  20493962.063 6                   -667529.580 6   -513250.51248  20493957.47348
  21752661.867 5  21752657.871 8  -3514943.349 5  -2718490.482 8  21752657.61347
  23964586.547 2                   -117477.35112    -50370.07956  23964585.69946
  21153584.945 6                  -2650452.715 6  -2045395.25348  21153580.50048
  20217998.461 7                    342860.477 7    265650.59448  20217992.80148
  23459048.922 5                   1538560.138 5   1186708.68847  23459045.07847
  22104183.688 6                   1979942.216 6   1525165.55248  22104177.10548
  22256665.258 5                   1252041.880 5    966002.802 8  22256672.383 8
  19859871.219 8                   -778829.104 8   -600979.411 9  19859878.281 9
  21974830.852 6                   1055423.313 6    813779.296 8  21974836.941 8
  20247900.945 7                  -2581086.806 7  -1990398.233 9  20247909.102 9
  22369913.188 4                   -147184.246 4    -76043.413 8  22369919.250 8
  22389492.523 3                    110079.188 3     71787.038 8  22389499.719 8
  21847449.492 6                   -301827.826 6   -232378.127 8  21847457.734 8
 11  2 28 13 46 15.0000000  0 14G02G04G07G08G10G13G20G23R01R02R11R12
                                R17R18
  21984563.430 6                  -3432434.012 6  -2630934.20548  21984557.25448
  20493594.266 6                   -669459.707 6   -514754.52348  20493590.43448
  21749546.484 6  21749542.082 8  -3531314.631 6  -2731247.316 8  21749542.31647
  23960583.148 4                                                
  21151186.266 6                  -2663056.833 6  -2055216.65248  21151181.48048
  20218502.047 7                    345505.328 7    267711.50748  20218496.15248
  23461169.203 5                   1549702.637 5   1195391.14647  23461165.64547
  22106098.031 6                   1990001.017 6   1533003.58448  22106091.76248
  22258385.359 5                   1261235.456 5    973153.313 8  22258392.262 8
  19859261.023 8                   -782087.242 8   -603513.526 9  19859267.445 9
  21976822.547 6                   1066068.391 6    822058.788 8  21976829.953 8
  20245900.727 7                  -2591770.413 7  -1998707.709 9  20245908.945 9
  22392160.195 5                    124354.138 5     82889.764 8  22392167.117 8
  21847294.680 6                   -302652.174 6   -233019.316 8  21847302.797 8
 11  2 28 13 46 20.0000000  0 14G02G04G07G08G10G13G20G23R01R02R11R12
                                R17R18
  21981547.734 6                  -3448282.773 6  -2643283.88648  21981541.28948
  20493229.305 6                   -671379.408 6   -516250.39048  20493224.84048
  21746431.570 5  21746427.656 9  -3547682.146 5  -2744001.225 9  21746427.55547
  23956576.648 3                                                  23956572.34046
  21148789.219 6                  -2675654.771 6  -2065033.22848  21148784.61748
  20219008.297 7                    348166.381 7    269785.05148  20219002.95748
  23463292.055 5                   1560855.405 5   1204081.61247  23463288.04347
  22108015.141 6                   2000077.341 6   1540855.26048  22108009.50448
  22260108.563 6                   1270443.995 6    980315.499 8  22260114.543 8
  19858653.867 8                   -785329.450 8   -606035.244 9  19858659.965 9
  21978820.672 6                   1076745.550 6    830363.263 8  21978827.727 8
  20243905.469 7                  -2602429.828 7  -2006998.361 9  20243913.391 9
  22394826.789 4                    138621.919 4     93986.906 8  22394833.664 8
  21847144.164 6                   -303459.870 6   -233647.507 8  21847152.094 8
 11  2 28 13 46 25.0000000  0 15G02G04G07G08G10G13G20G23R01R02R11R12
                                R13R17R18
  21978536.922 6                  -3464103.630 6  -2655611.83048  21978530.77048
  20492866.547 6                   -673284.446 6   -517734.83548  20492862.50048
  21743314.813 5  21743311.160 8  -3564060.624 5  -2756763.683 8  21743311.07047
  23952564.102 3                   -180649.98213    -81223.30656  23952561.66046
  21146395.695 6                  -2688232.573 6  -2074834.10548  21146391.09048
  20219517.859 6                    350845.226 6    271872.46248  20219512.37948
  23465412.828 5                   1572000.849 5   1212766.38846  23465408.93046
  22109935.938 6                   2010168.695 6   1548718.61748  22109929.96948
  22261830.938 5                   1279654.753 5    987479.396 8  22261837.750 8
  19858049.977 8                   -788551.242 8   -608541.090 9  19858056.148 9
  21980825.250 6                   1087456.895 6    838694.279 8  21980832.488 8
  20241912.313 7                  -2613077.905 7  -2015280.193 8  20241920.137 8
  22356014.008 5                   -221414.16015   -133777.00417  22356018.891 7
  22397491.453 5                    152886.478 5    105081.516 8  22397498.691 8
  21846999.992 5                   -304232.830 5   -234248.728 8  21847007.863 8
 11  2 28 13 46 30.0000000  0 13G02G04G07G08G10G13G20G23R01R02R12R13
                                R17
  21975531.289 6                  -3479896.072 6  -2667917.61448  21975525.64148
  20492507.297 6                   -675173.570 6   -519206.88148  20492502.60248
  21740196.516 5  21740192.621 8  -3580449.359 5  -2769534.133 8  21740192.36347
  23948548.180 2                   -201755.46812    -97669.53456  23948545.77346
  21144006.305 6                  -2700789.904 6  -2084619.04948  21144001.44148
  20220030.906 6                    353539.896 6    273972.20348  20220025.41448
  23467532.148 4                   1583135.298 4   1221442.51646  23467528.14546
  22111857.969 6                   2020269.890 6   1556589.57547  22111851.80547
  22263553.555 5                   1288862.773 5    994641.174 8  22263560.367 8
  19857449.375 8                   -791755.131 8   -611033.003 9  19857455.348 9
  20239920.305 7                  -2623717.011 7  -2023555.053 8  20239928.188 8
  22351370.242 3                   -246193.97213   -153050.89317  22351379.027 7
  22400159.523 2                    167151.903 2    116176.876 8  22400165.629 8
 11  2 28 13 46 35.0000000  0 15G02G04G07G08G10G13G20G23R01R02R11R12
                                R13R17R18
  21972536.461 6                  -3495642.332 6  -2680187.44848  21972529.45748
  20492153.094 6                   -677035.504 6   -520657.73648  20492148.21548
  21737075.242 5  21737070.602 8  -3596853.712 5  -2782316.750 8  21737070.52347
  23944528.664 3                   -222881.758 3   -114131.47046  23944526.79746
  21141623.023 6                  -2713312.167 6  -2094376.63948  21141619.31348
  20220545.992 6                    356246.571 6    276081.29948  20220540.70748
  23469643.406 3                   1594234.987 3   1230091.63946  23469639.91846
  22113779.289 6                   2030365.53016   1564456.37157  22113772.89847
  22265271.313 5                   1298043.667 5   1001781.876 8  22265277.828 8
  19856851.406 8                   -794945.334 8   -613514.276 9  19856857.680 9
  21984848.664 5                   1108952.24215    855412.86218  21984853.832 8
  20237927.734 7                  -2634362.556 7  -2031834.917 8  20237935.430 8
  22346726.555 4                   -270999.863 4   -172344.399 7  22346733.820 7
  22402827.742 4                    181441.121 4    127290.709 8  22402835.070 8
  21846735.234 5                   -305646.38915   -235348.13618  21846741.840 8
 11  2 28 13 46 40.0000000  0 14G02G04G07G08G10G13G20G23R01R02R12R13
                                R17R18
  21969547.703 6                  -3511342.503 6  -2692421.33748  21969541.46548
  20491806.086 6                   -678859.358 6   -522078.93248  20491800.95748
  21733952.703 6  21733948.715 8  -3613260.236 6  -2795101.047 8  21733948.49247
  23940509.695 4                   -244001.96814   -130588.51256  23940506.77346
  21139246.820 6                  -2725799.955 6  -2104107.37848  21139242.09848
  20221060.773 6                    358952.963 6    278190.17048  20221055.05948
  23471746.656 3                   1605285.209 3   1238702.14446  23471742.90646
  22115693.641 6                   2040425.350 6   1572295.19848  22115687.19948
  22266979.070 5                   1307173.325 5   1008882.726 7  22266986.086 7
  19856253.289 8                   -798140.365 8   -615999.311 9  19856258.531 9
  20235931.836 7                  -2645022.736 7  -2040126.178 8  20235939.688 8
  22342079.508 3                   -295809.12913   -191640.46817  22342087.066 7
  22405510.141 3                    195786.673 3    138448.343 8  22405516.320 8
  21846620.266 6                   -306256.984 6   -235823.045 8  21846627.918 8
 11  2 28 13 46 45.0000000  0 14G02G04G07G08G10G13G20G23R01R02R12R13
                                R17R18
  21966566.813 6                  -3527006.700 6  -2704627.20647  21966560.79347
  20491465.672 6                   -680646.415 6   -523471.44148  20491461.31648
  21730832.492 5  21730828.355 8  -3629658.523 5  -2807878.935 8  21730828.06347
  23936492.281 4                   -265105.482 4   -147032.84446  23936492.33646
  21136875.328 6                  -2738261.923 6  -2113818.00748  21136870.72348
  20221575.172 7                    361655.951 7    280296.39148  20221569.68448
  23473841.656 3                   1616294.210 3   1247280.59746  23473837.87946
  22117600.578 6                   2050447.082 6   1580104.34447  22117594.09047
  22268677.625 5                   1316255.874 5   1015946.894 7  22268684.914 7
  19855651.938 7                   -801345.889 7   -618492.484 9  19855658.320 9
  20233934.398 7                  -2655691.493 7  -2048424.093 8  20233942.832 8
  22337436.203 5                   -320608.761 5   -210929.060 8  22337443.195 8
  22408202.547 4                    210190.504 4    149651.304 8  22408207.719 8
  21846517.758 5                   -306809.39615                  21846524.969 8
 11  2 28 13 46 50.0000000  0 15G02G04G07G08G10G13G20G23R01R02R11R12
                                R13R17R18
  21963591.250 6                  -3542641.551 6  -2716810.20947  21963585.17647
  20491131.320 7                   -682404.430 7   -524841.32448  20491126.84048
  21727713.203 6  21727708.859 8  -3646050.836 6  -2820652.143 8  21727708.09847
  23932478.195 3                   -286200.520 3   -163470.58546  23932476.21546
  21134507.789 6                  -2750703.269 6  -2123512.56448  21134503.04748
  20222090.125 7                    364361.300 7    282404.45848  20222084.36348
  23475929.969 4                   1627276.260 4   1255838.05546  23475927.48846
  22119503.688 6                   2060446.683 6   1587896.21347  22119497.30947
  22270371.938 5                   1325308.771 5   1022988.041 7  22270378.469 7
  19855050.984 8                   -804554.186 8   -620987.841 9  19855057.504 9
  21990866.094 6                     12001.46216                  21990869.844 8
  20231937.695 7                  -2666359.844 7  -2056721.691 8  20231945.281 8
  22332793.719 5                   -345403.918 5   -230214.152 8  22332801.688 8
  22410900.844 3                    224633.397 3    160884.640 8  22410906.480 8
  21846421.266 6                                                  21846430.156 8
 11  2 28 13 46 55.0000000  0 14G02G04G07G08G10G13G20G23R01R02R11R12
                                R17R18
  21960622.703 7                  -3558241.876 7  -2728966.29848  21960616.38748
  20490803.789 7                   -684128.004 7   -526184.36848  20490798.70348
  21724594.695 6  21724590.219 8  -3662436.866 6  -2833420.483 8  21724589.86347
  23928467.992 4                   -307282.079 4   -179897.72446  23928465.81346
  21132145.305 7                  -2763120.212 7  -2133188.10248  21132140.21148
  20222604.164 7                    367064.268 7    284510.66648  20222599.08648
  23478013.672 5                   1638219.749 5   1264365.39346  23478009.51246
  22121400.266 6                   2070411.921 6   1595661.34447  22121393.31647
  22272056.867 5                   1334318.384 5   1029995.493 7  22272064.047 7
  19854447.609 8                   -807771.218 8   -623489.979 9  19854454.031 9
  21992865.180 6                     22683.929 6      8631.16418  21992870.543 8
  20229938.648 7                  -2677035.359 7  -2065024.857 8  20229947.270 8
  22413609.805 4                    239129.021 4    172158.998 8  22413615.512 8
  21846336.422 6                   -307769.29816   -236998.85418  21846343.699 8
 11  2 28 13 47  0.0000000  0 15G02G04G07G08G10G13G20G23R01R02R11R12
                                R13R17R18
  21957666.281 7                  -3573780.597 7  -2741074.38448  21957660.15648
  20490486.047 7                   -685796.208 7   -527484.29048  20490481.21148
  21721477.008 6  21721472.398 8  -3678821.260 6  -2846187.543 8  21721472.58247
  23924459.883 3                   -328337.97413   -196304.80955  23924458.32445
  21129791.203 7                  -2775491.127 7  -2142827.79548  21129786.90648
  20223115.695 7                    369753.240 7    286605.97848  20223110.35548
  23480080.703 5                   1649080.943 5   1272828.66046  23480077.54746
  22123282.539 7                   2080304.700 7   1603369.97848  22123275.53548
  22273724.734 6                   1343236.127 6   1036931.514 7  22273731.625 7
  19853840.875 9                   -811011.294 9   -626010.031 9  19853847.512 9
  21994852.125 6                     33309.404 6     16895.376 7  21994858.031 7
  20227934.078 8                  -2687746.585 8  -2073355.794 9  20227942.781 9
  22323508.461 6                   -394972.81416   -268767.75717  22323516.879 7
  22416338.445 6                    253724.244 6    183510.817 8  22416344.605 8
  21846268.461 7                   -308130.000 7   -237279.479 9  21846277.660 9
 11  2 28 13 47  5.0000000  0 15G02G04G07G08G10G13G20G23R01R02R11R12
                                R13R17R18
  21954713.078 7                  -3589300.982 7  -2753168.20448  21954706.77748
  20490172.195 7                   -687443.106 7   -528767.58448  20490168.02348
  21718361.359 6  21718357.168 9  -3695195.692 6  -2858946.848 9  21718357.30147
  23920453.117 4                   -349388.184 4   -212707.59846  23920452.82446
  21127439.117 7                  -2787850.488 7  -2152458.46248  21127434.40648
  20223629.273 7                    372449.749 7    288707.14248  20223623.16448
  23482146.813 5                   1659935.164 5   1281286.49346  23482142.91446
  22125163.961 7                   2090191.755 7   1611074.18048  22125156.90248
  22275390.352 6                   1352145.842 6   1043861.293 7  22275399.125 7
  19853234.242 9                   -814248.046 9   -628527.506 9  19853240.512 9
  21996841.938 6                     43942.352 6     25165.449 7  21996848.270 7
  20225930.406 8                  -2698443.876 8  -2081675.904 9  20225940.383 9
  22318869.508 6                   -419746.813 6   -288036.378 7  22318876.250 7
  22419068.633 6                    268340.484 6    194878.986 8  22419075.262 8
  21846205.914 7                   -308460.541 7   -237536.538 9  21846215.945 9
 11  2 28 13 47 10.0000000  0 15G02G04G07G08G10G13G20G23R01R02R11R12
                                R13R17R18
  21951762.414 7                  -3604809.964 7  -2765253.12648  21951755.21148
  20489862.180 7                   -689074.269 7   -530038.61448  20489857.55948
  21715246.984 6  21715242.188 9  -3711559.618 6  -2871697.938 9  21715242.59047
  23916448.547 3                   -370436.602 3   -229108.95646  23916448.41846
  21125088.469 7                  -2800203.838 7  -2162084.44248  21125083.60248
  20224144.516 7                    375156.650 7    290816.42648  20224138.53948
  23484213.359 5                   1670793.229 5   1289747.32446  23484208.92646
  22127046.328 6                   2100082.927 6   1618781.56648  22127039.67248
  22277059.297 6                   1361059.700 6   1050794.302 7  22277066.813 7
  19852628.766 9                   -817477.630 9   -631039.405 9  19852635.305 9
  21998835.094 6                     54592.320 6     33448.744 7  21998841.215 7
  20223933.242 8                  -2709120.194 8  -2089979.697 9  20223941.695 9
  22314231.883 6                   -444515.156 6   -307300.717 7  22314238.934 7
  22421802.336 6                    282964.858 6    206253.494 8  22421808.043 8
  21846147.984 7                   -308769.986 7   -237777.240 9  21846157.902 9
 11  2 28 13 47 15.0000000  0 15G02G04G07G08G10G13G20G23R01R02R11R12
                                R13R17R18
  21948811.922 7                  -3620310.548 7  -2777331.50448  21948805.46948
  20489554.164 7                   -690692.245 7   -531299.37148  20489549.98448
  21712135.289 6  21712130.734 9  -3727912.992 6  -2884440.846 9  21712130.59047
  23912443.391 4                   -391484.862 4   -245510.24746  23912443.06646
  21122738.047 7                  -2812553.666 7  -2171707.67748  21122733.27748
  20224661.172 7                    377874.836 7    292934.48148  20224656.06348
  23486280.211 5                   1681659.244 5   1298214.32346  23486276.77046
  22128929.547 7                   2109981.881 7   1626495.04248  22128922.98448
  22278728.258 6                   1369982.228 6   1057734.000 8  22278736.621 8
  19852025.484 9                   -820698.997 9   -633544.923 9  19852031.590 9
  22000831.898 6                     65262.723 6     41747.992 8  22000838.527 8
  20221938.250 8                  -2719773.051 8  -2098265.262 9  20221946.820 9
  22309593.828 4                   -469278.348 4   -326560.860 8  22309601.590 8
  22424535.922 6                    297592.253 6    217630.341 8  22424541.059 8
  21846094.211 7                   -309063.216 7   -238005.302 9  21846101.652 9
 11  2 28 13 47 20.0000000  0 14G02G04G07G08G10G13G20G23R01R02R11R12
                                R17R18
  21945856.352 7                  -3635841.274 7  -2789433.35848  21945849.90648
  20489243.109 7                   -692327.160 7   -532573.33348  20489238.76248
  21709026.617 6  21709022.543 9  -3744248.576 6  -2897169.838 9  21709022.07847
  23908435.555 5                   -412551.114 5   -261925.50846  23908434.38746
  21120382.680 7                  -2824930.479 7  -2181351.93848  21120377.88748
  20225184.398 7                    380623.028 7    295075.92849  20225178.88749
  23488362.266 5                   1692598.942 5   1306738.77246  23488358.51246
  22130825.672 6                   2119947.026 6   1634260.09448  22130819.68448
  22280413.328 6                   1378986.560 6   1064737.366 7  22280420.117 7
  19851427.805 9                   -823888.863 9   -636025.931 9  19851433.703 9
  22002843.609 7                     76009.553 7     50106.613 8  22002849.434 8
  20219957.273 8                  -2730359.082 8  -2106498.837 9  20219965.262 9
  22427254.000 5                    312153.572 5    228955.786 8  22427261.723 8
  21846032.195 7                   -309394.669 7   -238263.084 9  21846039.902 9
 11  2 28 13 47 25.0000000  0 15G02G04G07G08G10G13G20G23R01R02R11R12
                                R13R17R18
  21942894.531 6                  -3651407.685 6  -2801563.02648  21942888.11748
  20488927.578 7                   -693985.015 7   -533865.16948  20488923.03948
  21705921.461 6  21705917.691 9  -3760566.596 6  -2909885.190 9  21705917.28947
  23904421.820 4                   -433641.12014   -278359.25856  23904420.75446
  21118022.102 7                  -2837338.196 7  -2191020.29348  21118017.53948
  20225714.242 7                    383406.796 7    297245.09749  20225708.50449
  23490460.094 5                   1703625.291 5   1315330.69146  23490456.49246
  22132737.523 6                   2129992.463 6   1642087.68748  22132730.98448
  22282115.742 6                   1388088.205 6   1071816.396 8  22282122.727 8
  19850836.820 8                   -827040.162 8   -638476.946 9  19850843.504 9
  22004870.711 6                     86847.111 6     58535.817 8  22004877.508 8
  20217989.156 7                  -2740869.642 7  -2114673.719 9  20217997.762 9
  22300321.844 5                   -518794.74915   -365073.62718  22300329.133 8
  22429962.102 5                    326633.469 5    240217.934 8  22429968.445 8
  21845961.117 6                   -309773.966 6   -238558.104 9  21845968.793 9
 11  2 28 13 47 30.0000000  0 13G02G04G07G10G13G20G23R01R02R11R12R17
                                R18
  21939929.031 6                  -3666990.768 6  -2813705.68848  21939923.09448
  20488610.391 6                   -695650.364 6   -535162.84548  20488606.27048
  21702818.414 6  21702814.496 8  -3776870.506 6  -2922589.530 8  21702814.66847
  21115657.820 6                  -2849762.394 6  -2200701.47748  21115652.52748
  20226248.352 7                    386212.824 7    299431.60949  20226242.80949
  23492567.492 3                   1714700.935 3   1323961.07846  23492563.75046
  22134658.016 6                   2140082.413 6   1649949.98548  22134651.04748
  22283828.898 5                   1397244.724 5   1078938.124 8  22283835.629 8
  19850250.766 8                   -830169.089 8   -640910.564 9  19850257.262 9
  22006909.250 5                     97740.620 5     67008.535 8  22006916.117 8
  20216030.852 7                  -2751330.292 7  -2122809.776 9  20216038.855 9
  22432660.070 4                    341071.642 4    251447.592 8  22432665.875 8
  21845886.656 5                   -310172.424 5   -238868.011 8  21845894.129 8
 11  2 28 13 47 35.0000000  0 13G02G04G07G10G13G20G23R01R02R11R12R17
                                R18
  21936961.563 6                  -3682586.354 6  -2825858.09248  21936955.35948
  20488293.203 6                   -697319.534 6   -536463.50048  20488288.50848
  21699718.617 5  21699714.152 8  -3793162.094 5  -2935284.257 8  21699714.23047
  21113290.938 6                  -2862199.892 6  -2210393.03248  21113286.26648
  20226785.703 6                    389036.858 6    301632.15648  20226780.21148
  23494682.508 3                   1725814.665 3   1332621.10946  23494679.14146
  22136584.328 6                   2150206.437 6   1657838.81747  22136577.54747
  22285549.953 5                   1406443.485 5   1086092.713 8  22285556.820 8
  19849667.602 8                   -833280.684 8   -643330.695 9  19849674.359 9
  22008956.375 5                    108679.203 5     75516.325 7  22008962.926 7
  20214080.234 7                  -2761748.675 7  -2130912.953 9  20214088.691 9
  22435352.344 3                    355477.721 3    262652.299 8  22435359.070 8
  21845809.313 6                   -310583.146 6   -239187.448 8  21845816.727 8
 11  2 28 13 47 40.0000000  0 15G02G04G07G08G10G13G20G23R01R02R11R12
                                R13R17R18
  21933992.859 5                  -3698179.936 5  -2838008.92547  21933987.34447
  20487976.586 6                   -698981.341 6   -537758.41048  20487972.15648
  21696620.242 5  21696616.391 8  -3809443.480 5  -2947971.056 8  21696616.24247
  23892372.008 4                                                
  21110923.695 6                  -2874638.760 6  -2220085.65547  21110918.68447
  20227324.844 6                    391874.468 6    303843.28448  20227318.99648
  23496800.508 3                   1736944.721 3   1341293.86346  23496796.50446
  22138514.117 5                   2160346.463 5   1665740.14847  22138507.69947
  22287274.117 5                   1415661.036 5   1093261.899 7  22287280.586 7
  19849086.547 6                   -836380.871 6   -645741.955 9  19849092.891 9
  22011009.141 4                    119646.054 4     84046.088 7  22011015.219 7
  20212134.859 7                  -2772138.275 7  -2138993.748 8  20212143.434 8
  22286416.984 5                   -593044.92915   -404342.66117  22286427.223 7
  22438042.578 3                    369874.970 3    273850.159 8  22438048.422 8
  21845735.125 5                   -310986.761 5   -239501.399 8  21845742.027 8
 11  2 28 13 47 45.0000000  0 15G02G04G07G08G10G13G20G23R01R02R11R12
                                R13R17R18
  21931028.688 6                  -3713761.646 6  -2850150.53048  21931022.48048
  20487663.805 7                   -700626.122 7   -539040.06348  20487659.68448
  21693524.656 6  21693520.547 8  -3825712.296 6  -2960648.050 8  21693520.46147
  23888353.563 3                    -35465.06213     -1973.35456  23888350.31346
  21108557.852 6                  -2887070.832 6  -2229772.98748  21108552.98048
  20227867.664 7                    394723.473 7    306063.27448  20227862.17648
  23498919.109 4                   1748079.609 4   1349970.42446  23498915.66046
  22140444.117 6                   2170490.876 6   1673644.86448  22140437.86348
  22288999.688 5                   1424883.186 5   1100434.678 7  22289006.215 7
  19848507.023 8                   -839473.036 8   -648146.971 9  19848513.602 9
  22013064.102 6                    130629.443 6     92588.703 8  22013070.633 8
  20210195.180 7                  -2782505.646 7  -2147057.256 8  20210203.035 8
  22281784.633 5                   -617783.546 5   -423583.908 7  22281791.816 7
  22440733.883 4                    384282.276 4    285055.824 8  22440741.258 8
  21845661.891 6                   -311369.546 6   -239799.122 8  21845669.910 8
 11  2 28 13 47 50.0000000  0 15G02G04G07G08G10G13G20G23R01R02R11R12
                                R13R17R18
  21928064.961 6                  -3729336.093 6  -2862286.44748  21928058.58648
  20487355.906 7                   -702244.313 7   -540300.99748  20487351.27348
  21690434.039 6  21690430.422 8  -3841952.147 6  -2973302.454 8  21690430.26247
  23884341.938 3                    -56543.438 3    -18398.02446  23884338.64846
  21106192.875 6                  -2899500.421 6  -2239458.38048  21106188.38348
  20228409.664 7                    397571.108 7    308282.21948  20228403.78948
  23501037.008 5                   1759209.316 5   1358642.94146  23501033.55946
  22142370.375 6                   2180612.031 6   1681531.50348  22142364.34848
  22290721.523 6                   1434089.864 6   1107595.418 8  22290728.309 8
  19847925.383 8                   -842576.605 8   -650560.859 9  19847931.695 9
  22015116.352 7                    141595.977 7    101118.272 8  22015123.039 8
  20208257.000 7                  -2792855.949 7  -2155107.479 9  20208265.309 9
  22277156.648 5                   -642489.580 5   -442799.656 8  22277165.012 8
  22443433.742 5                    398729.501 5    296292.524 8  22443440.844 8
  21845594.320 6                   -311728.990 6   -240078.695 8  21845603.125 8
 11  2 28 13 47 55.0000000  0 15G02G04G07G08G10G13G20G23R01R02R11R12
                                R13R17R18
  21925099.938 6                  -3744916.315 6  -2874426.87248  21925093.74648
  20487053.016 7                   -703834.919 7   -541540.43648  20487048.51248
  21687352.930 6  21687347.680 8  -3858146.979 6  -2985921.802 8  21687347.68847
  23880342.258 3                    -77565.18413    -34778.59756  23880339.21546
  21103825.773 6                  -2911939.293 6  -2249151.00248  21103820.66048
  20228949.844 7                    400409.253 7    310493.76348  20228944.10548
  23503156.172 5                   1770340.625 5   1367316.64446  23503152.01646
  22144289.945 6                   2190698.223 6   1689390.85748  22144283.65248
  22292440.648 6                   1443279.915 6   1114743.261 8  22292447.680 8
  19847339.219 8                   -845704.137 8   -652993.372 9  19847345.992 9
  22017161.805 7                    152528.388 7    109621.236 8  22017168.828 8
  20206323.516 7                  -2803184.637 7  -2163140.889 8  20206331.988 8
  22272540.195 4                   -667140.260 4   -461972.374 7  22272548.711 7
  22446143.789 5                    413228.524 5    307569.528 8  22446150.773 8
  21845529.414 6                   -312075.321 6   -240348.072 8  21845537.535 8
 11  2 28 13 48  0.0000000  0 15G02G04G07G08G10G13G20G23R01R02R11R12
                                R13R17R18
  21922152.039 7                  -3760409.298 7  -2886499.34648  21922145.82448
  20486755.672 7                   -705398.777 7   -542759.02648  20486751.09848
  21684258.703 6  21684254.445 8  -3874404.351 6  -2998589.940 8  21684254.37547
  23876325.523 5                    -98670.955 5    -51224.75546  23876322.78146
  21101472.203 7                  -2924308.402 7  -2258789.28548  21101467.30948
  20229495.469 7                    403277.108 7    312728.44448  20229490.13348
  23505262.133 3                   1781408.772 3   1375941.09046  23505258.27746
  22146212.031 6                   2200800.949 6   1697263.07547  22146205.57047
  22294153.063 5                   1452434.945 5   1121863.784 7  22294160.055 7
  19846761.422 8                   -848788.134 8   -655392.063 9  19846768.270 9
  22019218.695 6                    163514.890 6    118166.262 8  22019224.906 8
  20204385.313 7                  -2813539.806 7  -2171194.927 8  20204392.949 8
  22267907.813 4                                   -481213.59117  22267914.887 7
  22448853.578 6                    427726.972 6    318846.126 8  22448860.070 8
  21845482.297 7                   -312326.513 7   -240543.450 8  21845490.164 8
 11  2 28 13 48  5.0000000  0 14G02G04G07G08G10G13G20G23R02R11R12R13
                                R17R18
  21919233.078 7                  -3775749.561 7  -2898452.83648  21919226.35948
  20486470.563 7                   -706895.493 7   -543925.34749  20486466.02749
  21681148.188 6  21681144.129 9  -3890749.502 6  -3011326.447 9  21681143.89548
  23872295.047 5                   -119854.447 5    -67731.28046  23872292.31646
  21099141.180 7                  -2936556.354 7  -2268333.17648  21099136.49648
  20230042.258 7                    406151.220 7    314967.97948  20230037.28148
  23507337.016 5                                                
  22148123.148 6                   2210844.277 6   1705088.96047  22148117.02047
  19846186.352 8                   -851854.477 8   -657777.062 9  19846193.578 9
  22021271.414 5                    174488.879 5    126701.537 7  22021278.324 7
  20202429.109 7                  -2823989.515 7  -2179322.530 8  20202437.066 8
  22263255.445 6                   -716723.06916   -500536.83118  22263263.047 8
  22451578.859 7                    442315.075 7    330192.365 8  22451585.887 8
  21845469.633 7                   -312394.312 7   -240596.244 8  21845478.543 8
 11  2 28 13 48 10.0000000  0 15G02G04G07G08G10G13G20G23R01R02R11R12
                                R13R17R18
  21916315.219 7                  -3791081.935 7  -2910400.15148  21916308.60248
  20486196.570 7                   -708338.110 7   -545049.48849  20486191.87549
  21678049.516 7  21678045.633 9  -3907033.034 7  -3024014.926 9  21678045.53548
  23868282.648 6                   -140937.193 6    -84159.47047  23868280.70747
  21096810.328 7                  -2948804.218 7  -2277876.96548  21096806.21948
  20230582.992 7                    408992.165 7    317181.67748  20230577.56348
  23509404.703 5                   1803179.20515   1382748.39756  23509400.63746
  22150016.539 6                   2220792.540 6   1712840.83047  22150010.18047
  22297512.625 6                   1470390.96816   1135828.68117  22297519.113 7
  19845601.492 8                   -854978.311 8   -660206.728 9  19845607.977 9
  22023307.195 5                    185363.588 5    135159.643 7  22023313.602 7
  20200472.484 8                  -2834443.312 8  -2187453.276 9  20200480.020 9
  22258619.344 7                   -741481.402 7   -519793.371 8  22258626.438 8
  22454327.836 7                    457024.217 7    341632.800 8  22454335.402 8
  21845464.953 7                   -312419.030 7   -240615.467 8  21845473.695 8
 11  2 28 13 48 15.0000000  0 15G02G04G07G08G10G13G20G23R01R02R11R12
                                R13R17R18
  21913391.766 7                  -3806444.822 7  -2922371.21248  21913385.44548
  20485923.828 7                   -709769.963 7   -546165.21149  20485919.49649
  21674961.086 7  21674956.836 9  -3923264.632 7  -3036662.901 9  21674956.66848
  23864281.180 6                   -161968.268 6   -100547.26347  23864278.19547
  21094474.117 7                  -2961081.433 7  -2287443.62748  21094469.87548
  20231123.148 7                    411830.791 7    319393.60648  20231117.90648
  23511478.219 5                   1814080.881 5   1391243.17646  23511474.95346
  22151908.820 6                   2230733.332 6   1720586.90147  22151901.23447
  22299187.250 4                   1479352.890 4   1142799.082 7  22299194.621 7
  19845012.805 8                   -858117.748 8   -662648.507 9  19845019.285 9
  22025340.289 5                    196229.062 5    143610.533 7  22025346.961 7
  20198523.773 8                  -2844851.979 8  -2195548.913 9  20198531.980 9
  22253993.516 7                   -766180.565 7   -539003.830 8  22254001.457 8
  22457079.961 6                    471749.743 6    353085.989 8  22457086.418 8
  21845457.031 7                   -312463.665 7   -240650.200 8  21845464.461 8
 11  2 28 13 48 20.0000000  0 15G02G04G07G08G10G13G20G23R01R02R11R12
                                R13R17R18
  21910469.531 7                  -3821798.914 7  -2934335.45148  21910463.68048
  20485654.094 7                   -711187.085 7   -547269.46849  20485649.45349
  21671874.492 7  21671870.266 9  -3939484.056 7  -3049301.409 9  21671870.47348
  23860279.641 6                   -182995.872 6   -116932.41547  23860276.50047
  21092138.727 7                  -2973354.934 7  -2297007.40248  21092134.42248
  20231665.484 7                    414678.725 7    321612.77148  20231659.64548
  23513554.094 5                   1824987.948 5   1399742.17246  23513550.40646
  22153801.367 6                   2240677.607 6   1728335.67747  22153794.09447
  22300866.914 5                   1488319.835 5   1149773.361 7  22300871.777 7
  19844425.914 8                   -861251.286 8   -665085.715 9  19844432.137 9
  22027376.742 6                    207110.052 6    152073.522 7  22027382.492 7
  20196578.719 8                  -2855238.618 8  -2203627.408 9  20196587.254 9
  22249369.227 7                   -790871.749 7   -558208.062 8  22249377.863 8
  22459832.750 7                    486482.439 7    364544.739 8  22459839.574 8
  21845451.047 7                   -312490.712 7   -240671.238 9  21845459.586 9
 11  2 28 13 48 25.0000000  0 15G02G04G07G08G10G13G20G23R01R02R11R12
                                R13R17R18
  21907550.570 7                  -3837141.310 7  -2946290.56348  21907544.22748
  20485387.711 7                   -712588.412 7   -548361.41549  20485382.91849
  21668789.891 7  21668785.898 9  -3955692.608 7  -3061931.445 9  21668785.86748
  23856278.750 6                   -204021.408 6   -133315.94447  23856275.62947
  21089804.000 7                  -2985622.295 7  -2306566.38048  21089799.77348
  20232208.992 7                    417537.134 7    323840.09548  20232203.66848
  23515631.508 5                   1835899.024 5   1408244.32846  23515626.85946
  22155693.477 6                   2250626.166 6   1736087.73947  22155686.54747
  22302545.156 5                   1497291.090 5   1156750.940 7  22302549.461 7
  19843840.094 8                   -864377.494 8   -667517.188 9  19843846.320 9
  22029416.031 6                    218007.969 6    160549.679 8  22029422.938 8
  20194639.008 8                  -2865603.918 8  -2211689.296 9  20194647.523 9
  22244746.484 7                   -815556.959 7   -577407.646 9  22244754.902 9
  22462586.953 7                    501223.306 7    376009.878 8  22462593.406 8
  21845450.539 7                   -312497.097 7   -240676.242 9  21845458.730 9
 11  2 28 13 48 30.0000000  0 15G02G04G07G08G10G13G20G23R01R02R11R12
                                R13R17R18
  21904633.359 7                  -3852471.892 7  -2958236.46148  21904626.98448
  20485123.891 7                   -713973.772 7   -549440.92149  20485119.59049
  21665708.039 7  21665704.027 9  -3971890.156 7  -3074552.913 9  21665703.85948
  23852277.844 6                   -225044.758 6   -149697.76447  23852274.75047
  21087471.055 7                  -2997883.354 7  -2316120.45448  21087466.78948
  20232754.984 7                    420406.094 7    326075.64448  20232749.62548
  23517708.664 5                   1846814.217 5   1416749.63546  23517703.84846
  22157587.797 6                   2260578.967 6   1743843.17947  22157580.78947
  22304223.492 5                   1506266.664 5   1163731.979 7  22304228.293 7
  19843255.336 8                   -867496.356 8   -669942.990 9  19843261.633 9
  22031458.227 6                    228922.938 6    169039.089 8  22031466.316 8
  20192702.344 8                  -2875947.902 8  -2219734.599 9  20192711.039 9
  22240126.367 7                   -840235.704 7   -596602.217 9  22240133.590 9
  22465344.555 7                    515972.484 7    387481.421 8  22465349.914 8
  21845454.430 7                   -312482.384 7   -240664.788 9  21845461.109 9
 11  2 28 13 48 35.0000000  0 15G02G04G07G08G10G13G20G23R01R02R11R12
                                R13R17R18
  21901718.367 7                  -3867790.503 7  -2970173.04248  21901712.02748
  20484863.297 7                   -715343.084 7   -550507.90949  20484858.88349
  21662627.719 7  21662623.660 9  -3988076.545 7  -3087165.679 9  21662623.49648
  23848277.539 6                   -246065.734 6   -166077.74247  23848274.52047
  21085139.141 7                  -3010137.961 7  -2325669.50048  21085134.60248
  20233303.156 7                    423285.679 7    328319.47248  20233297.68848
  23519785.516 5                   1857733.701 5   1425258.31446  23519782.19946
  22159482.523 6                   2270536.243 6   1751602.06847  22159475.87147
  22305902.570 5                   1515246.984 5   1170716.663 7  22305909.652 7
  19842672.820 8                   -870607.602 8   -672362.852 9  19842678.477 9
  22033503.992 6                    239855.010 6    177541.801 8  22033511.570 8
  20190769.719 8                  -2886270.331 8  -2227763.138 9  20190779.051 9
  22235504.703 7                   -864907.972 7   -615791.757 9  22235512.699 9
  22468101.617 6                    530729.917 6    398959.416 8  22468107.621 8
  21845461.586 7                   -312446.712 7   -240637.063 9  21845467.949 9
 11  2 28 13 48 40.0000000  0 15G02G04G07G08G10G13G20G23R01R02R11R12
                                R13R17R18
  21898805.219 7                  -3883097.120 7  -2982100.27348  21898799.32048
  20484605.781 7                   -716696.317 7   -551562.38149  20484601.32449
  21659549.172 7  21659545.344 9  -4004251.765 7  -3099769.735 9  21659545.53148
  23844277.711 6                   -267084.354 6   -182455.87347  23844274.91847
  21082808.164 7                  -3022386.138 7  -2335213.52448  21082803.56348
  20233853.172 7                    426175.938 7    330571.62048  20233847.32848
  23521864.711 5                   1868657.418 5   1433770.31346  23521861.13346
  22161377.398 6                   2280497.859 6   1759364.37447  22161371.71547
  22307584.680 5                   1524231.775 5   1177704.815 7  22307590.777 7
  19842090.836 8                   -873711.240 8   -674776.776 9  19842097.242 9
  22035553.234 6                    250804.199 6    186057.857 8  22035561.551 8
  20188841.750 8                  -2896571.109 8  -2235774.853 9  20188850.324 9
  22230886.633 7                   -889573.772 7   -634976.263 9  22230894.230 9
  22470861.086 7                    545495.563 7    410443.790 8  22470866.586 8
  21845471.617 7                   -312390.142 7   -240593.065 9  21845478.367 9
 11  2 28 13 48 45.0000000  0 15G02G04G07G08G10G13G20G23R01R02R11R12
                                R13R17R18
  21895894.766 7                  -3898391.901 7  -2994018.28448  21895888.79748
  20484351.281 7                   -718033.621 7   -552604.43349  20484346.45349
  21656473.797 7  21656469.301 9  -4020416.017 7  -3112365.260 9  21656469.44948
  23840278.047 6                   -288100.752 6   -198832.29447  23840274.85247
  21080478.602 7                  -3034628.048 7  -2344752.66748  21080474.44548
  20234404.703 7                    429076.697 7    332831.94948  20234399.75848
  23523943.484 5                   1879585.280 5   1442285.51946  23523940.76646
  22163274.297 6                   2290463.732 6   1767129.98147  22163268.28947
  22309265.250 5                   1533221.014 5   1184696.437 7  22309272.852 7
  19841510.641 8                   -876807.549 8   -677185.019 9  19841517.500 9
  22037605.000 6                    261770.281 6    194587.035 8  22037612.910 8
  20186917.539 8                  -2906850.505 8  -2243769.947 9  20186925.320 9
  22226268.000 7                   -914233.272 7   -654155.844 9  22226276.445 9
  22473622.383 7                    560269.405 7    421934.530 8  22473628.313 8
  21845485.422 7                   -312312.939 7   -240533.026 9  21845493.461 9
 11  2 28 13 48 50.0000000  0 15G02G04G07G08G10G13G20G23R01R02R11R12
                                R13R17R18
  21892986.852 7                  -3913674.923 7  -3005927.13648  21892980.19548
  20484099.969 8                   -719355.070 8   -553634.13949  20484095.46949
  21653399.781 7  21653395.781 9  -4036569.300 7  -3124952.230 9  21653395.85948
  23836279.719 5                   -309115.004 5   -215207.04647  23836276.18847
  21078150.141 7                  -3046863.714 7  -2354286.96048  21078145.72348
  20234958.867 7                    431987.834 7    335100.37048  20234953.29748
  23526024.492 5                   1890517.076 5   1450803.78246  23526021.17246
  22165172.203 6                   2300433.804 6   1774898.85447  22165165.26247
  22310948.344 5                   1542214.529 5   1191691.380 7  22310955.328 7
  19840932.008 8                   -879896.541 8   -679587.565 9  19840938.223 9
  22039661.438 6                    272753.220 6    203129.323 8  22039667.824 8
  20184996.602 8                  -2917108.606 8  -2251748.470 9  20185004.574 9
  22221650.445 7                   -938886.484 7   -673330.537 9  22221659.930 9
  22476384.813 7                    575051.296 7    433431.537 8  22476390.891 8
  21845503.852 7                   -312214.697 7   -240456.611 9  21845511.355 9
 11  2 28 13 48 55.0000000  0 15G02G04G07G08G10G13G20G23R01R02R11R12
                                R13R17R18
  21890080.602 7                  -3928946.478 7  -3017827.04648  21890074.14148
  20483851.594 8                   -720661.030 8   -554651.77449  20483846.73049
  21650328.117 7  21650323.848 9  -4052711.945 7  -3137530.910 9  21650323.96148
  23832281.320 6                   -330127.457 6   -231580.37547  23832277.62147
  21075823.078 7                  -3059093.525 7  -2363816.67948  21075818.52348
  20235514.820 7                    434909.045 7    337376.63048  20235509.51648
  23528104.977 5                   1901452.616 5   1459324.98546  23528101.93046
  22167070.141 6                   2310407.644 6   1782670.67947  22167063.43047
  22312631.320 4                   1551212.093 4   1198689.485 7  22312638.281 7
  19840353.836 8                   -882978.544 8   -681984.684 9  19840360.418 9
  22041719.180 6                    283752.726 6    211684.492 8  22041726.262 8
  20183080.555 8                  -2927345.727 8  -2259710.654 9  20183088.340 9
  22217035.133 7                   -963533.867 7   -692500.715 9  22217044.531 9
  22479148.086 7                    589840.765 7    444934.422 8  22479154.172 8
  21845525.820 7                   -312096.339 7   -240364.569 9  21845534.461 9
 11  2 28 13 49  0.0000000  0 15G02G04G07G08G10G13G20G23R01R02R11R12
                                R13R17R18
  21887179.734 7                  -3944190.035 7  -3029705.14748  21887173.66448
  20483606.203 7                   -721947.848 7   -555654.48549  20483601.96149
  21647255.711 7  21647250.895 9  -4068857.816 7  -3150112.100 9  21647250.55948
  23828280.422 6                   -351153.126 6   -247964.06747  23828276.98847
  21073500.086 7                  -3071303.693 7  -2373331.11048  21073495.03948
  20236072.898 7                    437843.319 7    339663.08448  20236068.09048
  23530183.820 5                   1912376.083 5   1467836.80046  23530180.25046
  22168968.563 6                   2320385.104 6   1790445.38247  22168961.98847
  22314313.883 6                   1560202.767 6   1205682.183 7  22314320.410 7
  19839779.016 8                   -886047.766 8   -684371.882 9  19839785.434 9
  22043781.797 6                    294773.534 6    220256.193 7  22043788.848 7
  20181165.383 8                  -2937572.474 8  -2267664.793 9  20181173.867 9
  22212417.133 7                   -988192.494 7   -711679.695 9  22212425.547 9
  22481913.000 7                    604639.842 7    456444.823 8  22481920.699 8
  21845554.961 7                   -311940.104 7   -240243.018 9  21845562.430 9
 11  2 28 13 49  5.0000000  0 13G02G04G07G10G13G20G23R01R02R11R12R17
                                R18
  21884296.914 6                  -3959341.485 6  -3041511.46448  21884290.21948
  20483369.484 7                   -723192.543 7   -556624.40349  20483365.59049
  21644174.023 7  21644169.789 9  -4085050.714 7  -3162729.943 9  21644169.58648
  21071190.406 6                  -3083441.773 6  -2382789.36048  21071185.24248
  20236634.570 7                    440791.525 7    341960.35048  20236629.27748
  23532246.563 5                   1923215.037 5   1476282.74946  23532242.76246
  22170862.914 6                   2330341.748 6   1798203.73847  22170856.68447
  22315982.641 6                   1569125.103 6   1212621.776 8  22315989.434 8
  19839207.766 8                   -889096.793 8   -686743.358 9  19839214.703 9
  22045848.078 5                    305807.86815    228838.39417  22045853.488 7
  20179244.156 8                  -2947837.571 8  -2275648.759 9  20179252.508 9
  22484687.523 7                    619482.458 7    467989.018 8  22484694.461 8
  21845605.102 6                   -311673.130 6   -240035.400 8  21845613.184 8
 11  2 28 13 49 10.0000000  0 13G02G04G07G10G13G20G23R01R02R11R12R17
                                R18
  21881416.789 6                  -3974477.063 6  -3053305.50547  21881410.30947
  20483140.367 7                   -724397.504 7   -557563.34148  20483135.89848
  21641098.953 7  21641094.531 9  -4101210.462 7  -3175321.981 9  21641094.43449
  21068881.391 6                  -3095573.456 6  -2392242.64447  21068876.75447
  20237191.563 7                    443720.753 7    344242.83248  20237186.77048
  23534302.781 6                   1934020.525 6   1484702.58847  23534298.41447
  22172746.039 6                   2340237.342 6   1805914.60347  22172739.91047
  22317642.266 6                   1577995.220 6   1219520.799 8  22317648.879 8
  19838630.016 8                   -892179.327 8   -689140.897 9  19838636.516 9
  22047900.172 5                    316785.987 5    237376.882 8  22047906.988 8
  20177322.211 8                  -2958105.730 8  -2283635.108 9  20177329.906 9
  22487475.266 5                    634403.453 5    479594.165 8  22487482.172 8
  21845664.805 5                   -311364.244 5   -239795.188 8  21845671.781 8
 11  2 28 13 49 15.0000000  0 15G02G04G07G08G10G13G20G23R01R02R11R12
                                R13R17R18
  21878521.547 6                  -3989690.186 6  -3065159.90347  21878514.85947
  20482906.945 7                   -725627.056 7   -558521.44348  20482901.67248
  21638035.523 7  21638031.852 9  -4117307.498 7  -3187865.132 9  21638031.59849
  23816275.328 6                    -23530.55016    -11124.51558  23816272.57848
  21066560.883 6                  -3107770.886 6  -2401747.15747  21066555.75447
  20237753.039 7                    446669.510 7    346540.54948  20237747.52748
  23536381.820 6                   1944942.701 6   1493213.33047  23536377.38747
  22174640.773 7                   2350193.866 7   1813672.90047  22174634.18847
  22319320.305 6                   1586974.000 6   1226504.248 8  22319328.730 8
  19838054.875 8                   -895249.963 8   -691529.208 9  19838060.684 9
  22049964.328 6                    327818.074 6    245957.406 8  22049971.691 8
  20175417.508 8                  -2968277.035 8  -2291546.113 9  20175426.234 9
  22198557.898 7                  -1062200.63917   -769242.12319  22198565.375 9
  22490252.781 6                    649260.264 6    491149.436 8  22490259.113 8
  21845705.516 6                   -311142.592 6   -239622.811 8  21845712.375 8
 11  2 28 13 49 20.0000000  0 15G02G04G07G08G10G13G20G23R01R02R11R12
                                R13R17R18
  21875626.734 6                  -4004904.356 6  -3077015.11747  21875620.09447
  20482672.734 7                   -726855.671 7   -559478.80448  20482668.07848
  21634973.898 7  21634969.668 9  -4133396.730 7  -3200402.185 9  21634969.59049
  23812278.648 6                    -44533.642 6    -27490.55548  23812276.21148
  21064238.477 6                  -3119971.317 6  -2411253.97947  21064234.06647
  20238318.461 7                    449640.921 7    348855.93848  20238312.80548
  23538466.094 6                   1955896.563 6   1501748.82747  23538462.18847
  22176542.141 6                   2360186.729 6   1821459.54947  22176536.40647
  22321009.156 6                   1595991.439 6   1233517.818 8  22321015.625 8
  19837483.750 8                   -898297.066 8   -693899.167 9  19837489.496 9
  22052039.172 6                    338899.880 6    254576.574 8  22052046.129 8
  20173520.875 9                  -2978408.819 9  -2299426.386 9  20173529.191 9
  22193948.234 7                  -1086817.767 7   -788388.749 9  22193955.066 9
  22493022.141 6                    664087.705 6    502681.897 8  22493029.973 8
  21845746.680 6                   -310922.273 6   -239451.474 8  21845754.445 8
 11  2 28 13 49 25.0000000  0 15G02G04G07G08G10G13G20G23R01R02R11R12
                                R13R17R18
  21872733.844 6                  -4020107.101 6  -3088861.40947  21872726.69547
  20482441.711 7                   -728068.789 7   -560424.09548  20482437.40248
  21631914.758 7  21631909.828 9  -4149475.299 7  -3212930.936 9  21631909.50849
  23808282.516 7                    -65534.934 7    -43855.20848  23808279.95348
  21061917.641 6                  -3132165.925 6  -2420756.26647  21061913.59447
  20238885.750 7                    452622.272 7    351179.06748  20238880.23048
  23540551.438 6                   1966853.933 6   1510287.01147  23540547.57047
  22178445.195 6                   2370183.294 6   1829249.06247  22178438.44547
  22322695.656 6                   1605012.757 6   1240534.386 8  22322703.637 8
  19836913.953 8                   -901337.317 8   -696263.813 9  19836920.422 9
  22054117.055 6                    349997.940 6    263208.392 8  22054122.852 8
  20171627.875 9                  -2988519.645 9  -2307290.356 9  20171635.527 9
  22189338.867 7                  -1111428.916 7   -807530.753 9  22189346.426 9
  22495795.609 6                    678922.642 6    514220.147 8  22495801.832 8
  21845791.508 6                   -310681.642 6   -239264.289 8  21845798.586 8
 11  2 28 13 49 30.0000000  0 15G02G04G07G08G10G13G20G23R01R02R11R12
                                R13R17R18
  21869842.992 6                  -4035298.655 6  -3100698.97847  21869836.25047
  20482213.469 7                   -729266.812 7   -561357.60648  20482209.34048
  21628856.641 7  21628852.590 9  -4165543.506 7  -3225451.612 9  21628852.31349
  23804286.492 7                    -86534.624 7    -60218.58748  23804283.68448
  21059598.398 6                  -3144354.951 6  -2430254.21547  21059594.14847
  20239454.617 7                    455613.272 7    353509.70948  20239449.25848
  23542636.828 6                   1977814.622 6   1518827.81647  23542632.78947
  22180347.945 6                   2380183.257 6   1837041.23248  22180340.94948
  22324385.070 7                   1614037.782 7   1247553.836 8  22324391.969 8
  19836345.109 8                   -904370.854 8   -698623.237 9  19836351.566 9
  22056196.695 6                    361112.000 6    271852.662 8  22056203.277 8
  20169739.711 9                  -2998609.675 9  -2315138.151 9  20169746.707 9
  22184731.078 7                  -1136034.378 7   -826668.314 9  22184738.344 9
  22498569.055 6                    693764.735 6    525763.999 8  22498575.898 8
  21845839.922 6                   -310420.926 6   -239061.534 8  21845847.180 8
 11  2 28 13 49 35.0000000  0 15G02G04G07G08G10G13G20G23R01R02R11R12
                                R13R17R18
  21866953.859 6                  -4050478.935 6  -3112527.75947  21866947.27747
  20481988.438 7                   -730449.621 7   -562279.27848  20481984.38748
  21625800.953 7  21625796.891 9  -4181601.288 7  -3237964.161 9  21625796.39849
  23800290.555 6                   -107532.653 6    -76580.68448  23800288.09848
  21057279.883 6                  -3156538.382 6  -2439747.79748  21057275.42648
  20240025.750 7                    458614.003 7    355847.94148  20240020.37148
  23544723.227 6                   1988778.728 6   1527371.26347  23544719.30547
  22182251.063 6                   2390186.736 6   1844836.14047  22182244.83647
  22326073.680 7                   1623066.390 7   1254576.092 8  22326080.570 8
  19835778.055 8                   -907397.686 8   -700977.433 9  19835784.480 9
  22058278.813 6                    372242.189 6    280509.485 8  22058285.438 8
  20167854.727 9                  -3008678.927 9  -2322969.801 9  20167862.020 9
  22180124.477 7                  -1160633.898 7   -845801.270 9  22180131.680 9
  22501343.023 6                    708614.032 6    537313.428 8  22501350.227 8
  21845892.711 6                   -310140.313 6   -238843.236 8  21845899.945 8
 11  2 28 13 49 40.0000000  0 15G02G04G07G08G10G13G20G23R01R02R11R12
                                R13R17R18
  21864066.453 6                  -4065647.000 6  -3124347.01847  21864061.10247
  20481766.547 7                   -731615.850 7   -563188.03748  20481762.34448
  21622747.570 7  21622743.332 9  -4197647.795 7  -3250467.927 9  21622743.33649
  23796295.180 6                   -128527.010 6    -92939.89847  23796292.77047
  21054963.188 6                  -3168715.479 6  -2449236.44947  21054958.22347
  20240598.398 7                    461623.595 7    358193.07048  20240593.27048
  23546810.836 6                   1999744.598 6   1535916.08347  23546806.01247
  22184154.914 6                   2400191.281 6   1852631.88247  22184148.39147
  22327762.594 7                   1632096.418 7   1261599.436 8  22327769.355 8
  19835211.945 8                   -910418.932 8   -703327.304 9  19835218.566 9
  22060364.563 6                    383385.813 6    289176.721 8  22060371.441 8
  20165972.836 9                  -3018728.371 9  -2330786.018 9  20165980.594 9
  22175518.563 7                  -1185226.101 7   -864928.532 9  22175527.859 9
  22504120.641 6                    723473.809 6    548871.020 8  22504127.555 8
  21845949.531 6                   -309837.963 6   -238608.107 8  21845957.035 8
 11  2 28 13 49 45.0000000  0 15G02G04G07G08G10G13G20G23R01R02R11R12
                                R13R17R18
  21861184.195 6                  -4080793.712 6  -3136149.64747  21861178.14547
  20481554.930 7                   -732731.017 7   -564057.03048  20481550.11348
  21619701.641 7  21619697.301 9  -4213653.223 7  -3262939.720 9  21619697.30549
  23792314.227 6                   -149448.066 6   -109242.00647  23792311.30147
  21052648.125 6                  -3180882.787 6  -2458717.50747  21052643.64547
  20241165.945 7                    464605.231 7    360516.41548  20241160.79748
  23548886.586 6                   2010663.713 6   1544424.45747  23548883.77747
  22186042.688 6                   2410112.764 6   1860362.92748  22186036.73848
  22329438.750 6                   1641054.578 6   1268566.863 8  22329445.742 8
  19834637.539 8                   -913485.945 8   -705712.762 9  19834643.453 9
  22062435.438 6                    394448.793 6    297781.296 8  22062441.398 8
  20164089.422 9                  -3028789.586 9  -2338611.431 9  20164098.164 9
  22170924.461 7                  -1209759.126 7   -884009.787 9  22170933.500 9
  22506916.852 5                    738439.499 5    560511.036 8  22506924.098 8
  21846015.453 6                   -309481.951 6   -238331.234 8  21846023.969 8
 11  2 28 13 49 50.0000000  0 15G02G04G07G08G10G13G20G23R01R02R11R12
                                R13R17R18
  21858307.969 5                  -4095913.482 5  -3147931.26247  21858301.02347
  20481352.492 6                   -733792.331 6   -564884.00948  20481348.21548
  21616663.664 6  21616659.836 9  -4229619.287 6  -3275380.780 9  21616659.77348
  23788346.211 5                   -170299.80615                
  21050335.109 6                  -3193035.376 6  -2468187.01948  21050330.66848
  20241728.750 7                    467562.243 7    362820.57948  20241723.24648
  23550956.578 4                   2021534.915 4   1552895.54146  23550952.80946
  22187915.984 6                   2419953.910 6   1868031.33447  22187909.45747
  22331100.672 6                   1649940.879 6   1275478.394 8  22331107.242 8
  19834054.156 7                   -916594.436 7   -708130.476 9  19834061.078 9
  22064491.750 5                    405434.775 5    306325.940 8  22064497.734 8
  20162204.203 8                  -3038862.388 8  -2346445.815 9  20162212.504 9
  22166341.531 5                  -1234235.979 5   -903047.312 8  22166349.898 8
  22509734.258 4                    753511.877 4    572233.905 8  22509740.934 8
  21846093.305 5                   -309066.366 5   -238007.999 8  21846101.262 8
 11  2 28 13 49 55.0000000  0 15G02G04G07G08G10G13G20G23R01R02R11R12
                                R13R17R18
  21855448.703 6                  -4110936.663 6  -3159637.62347  21855442.68047
  20481158.867 7                   -734809.750 7   -565676.79248  20481154.77748
  21613615.570 7  21613611.336 9  -4245635.093 7  -3287860.605 9  21613611.37549
  23784368.313 6                   -191202.265 6   -140478.85857  23784365.69547
  21048037.008 6                  -3205113.067 6  -2477598.18048  21048032.57848
  20242293.445 7                    470531.088 7    365133.97548  20242288.38348
  23553007.023 5                   2032314.64115   1561295.47957  23553004.35247
  22189784.188 6                   2429769.195 6   1875679.60047  22189776.99647
  22332749.586 6                   1658751.811 6   1282331.350 8  22332755.648 8
  19833475.672 7                   -919685.154 7   -710534.345 9  19833481.832 9
  22066548.148 5                    416431.063 5    314878.570 8  22066555.180 8
  20160310.336 8                  -3048978.064 8  -2354313.546 9  20160318.891 9
  22161745.867 7                  -1258777.73817   -922134.26318  22161753.336 8
  22512559.477 6                    768631.922 6    583993.992 8  22512566.688 8
  21846193.797 5                   -308533.985 5   -237593.906 8  21846201.449 8
 11  2 28 13 50  0.0000000  0 15G02G04G07G08G10G13G20G23R01R02R11R12
                                R13R17R18
  21852599.477 5                  -4125909.249 5  -3171304.57947  21852593.47747
  20480971.273 7                   -735794.549 7   -566444.16848  20480966.95748
  21610565.836 7  21610561.277 9  -4261662.482 7  -3300349.473 9  21610561.34848
  23780388.289 5                   -212117.255 5                
  21045745.523 6                  -3217153.355 6  -2486980.22447  21045740.88347
  20242860.008 7                    473508.605 7    367454.11348  20242855.37148
  23555050.906 5                   2043051.998 5   1569662.30746  23555047.18446
  22191648.195 6                   2439568.258 6   1883315.22947  22191642.03147
  22334390.734 6                   1667525.797 6   1289155.549 8  22334397.211 8
  19832897.711 7                   -922767.833 7   -712931.993 9  19832904.289 9
  22068606.813 5                    427433.018 5    323435.649 8  22068614.012 8
  20158415.492 7                  -3059102.082 7  -2362187.777 9  20158423.363 9
  22157145.758 6                  -1283338.315 6   -941236.953 8  22157153.488 8
  22515392.148 5                    783786.428 5    595780.780 8  22515398.633 8
  21846304.930 4                   -307935.342 4   -237128.308 8  21846313.512 8
 11  2 28 13 50  5.0000000  0 14G02G04G07G08G10G13G20G23R01R02R11R12
                                R17R18
  21849755.953 5                  -4140853.579 5  -3182949.50447  21849749.78947
  20480789.609 7                   -736748.893 7   -567187.82348  20480785.52048
  21607517.859 7  21607513.750 9  -4277680.037 7  -3312830.683 9  21607513.77348
  23776411.273 1                                                  23776407.51246
  21043457.820 6                  -3229175.637 6  -2496348.23447  21043453.52047
  20243426.563 6                    476485.836 6    369774.03248  20243421.08248
  23557089.492 4                   2053763.908 4   1578009.21447  23557085.47747
  22193508.352 6                   2449342.032 6   1890931.14547  22193501.21547
  22336025.719 6                   1676269.907 6   1295956.513 8  22336033.063 8
  19832319.023 7                   -925856.431 7   -715334.237 9  19832325.754 9
  22070663.320 4                    438423.386 4    331983.705 8  22070670.152 8
  20156520.547 8                  -3069224.061 8  -2370060.420 9  20156529.121 9
  22518231.703 5                    798982.592 5    607600.009 8  22518238.539 8
  21846425.820 5                   -307291.213 5   -236627.327 8  21846434.063 8
 11  2 28 13 50 10.0000000  0 13G02G04G07G10G13G20G23R01R02R11R12R17
                                R18
  21846915.094 5                  -4155785.642 5  -3194584.88547  21846908.18447
  20480611.094 7                   -737688.225 7   -567919.75948  20480606.87548
  21604471.977 7  21604467.273 9  -4293688.198 7  -3325304.562 9  21604467.04348
  21041171.383 6                  -3241191.758 6  -2505711.44747  21041166.55947
  20243995.305 6                    479473.356 6    372101.96948  20243989.77048
  23559128.344 5                   2064479.586 5   1586359.08447  23559124.37547
  22195369.141 6                   2459120.812 6   1898550.97147  22195362.53947
  22337662.734 6                   1685018.880 6   1302761.270 8  22337669.785 8
  19831741.320 7                   -928937.315 7   -717730.480 9  19831748.258 9
  22072724.047 2                                    340546.05217  22072731.414 7
  20154629.492 8                  -3079324.852 8  -2377916.591 9  20154637.820 9
  22521071.656 5                    814184.392 5    619423.621 8  22521079.156 8
  21846551.680 4                   -306625.901 4   -236109.857 8  21846558.145 8
 11  2 28 13 50 15.0000000  0 14G02G04G07G08G10G13G20G23R01R02R11R12
                                R17R18
  21844075.914 5                  -4170702.330 5  -3206208.26147  21844069.19947
  20480435.438 7                   -738612.602 7   -568640.06448  20480430.97348
  21601426.453 7  21601421.969 9  -4309691.428 7  -3337774.611 9  21601421.85948
  23768454.414 6                    -31845.48716     -1955.73358  23768450.51648
  21038886.086 6                  -3253199.962 6  -2515068.48647  21038881.43047
  20244565.320 7                    482468.088 7    374435.52148  20244559.90648
  23561166.281 5                   2075191.740 5   1594706.21047  23561162.55547
  22197230.297 6                   2468899.316 6   1906170.58847  22197223.31347
  22339298.555 6                   1693765.370 6   1309564.101 8  22339306.066 8
  19831165.125 7                   -932013.233 7   -720122.861 9  19831171.750 9
  22074787.000 4                    460455.40814    349119.73117  22074793.387 7
  20152741.516 8                  -3089410.745 8  -2385761.163 9  20152749.582 9
  22523915.039 6                    829394.973 6    631254.027 8  22523921.660 8
  21846680.445 5                   -305935.497 5   -235572.886 8  21846688.094 8
 11  2 28 13 50 20.0000000  0 15G02G04G07G08G10G13G20G23R01R02R11R12
                                R13R17R18
  21841242.555 5                  -4185592.421 5  -3217810.93747  21841236.20747
  20480264.523 6                   -739511.192 6   -569340.26048  20480259.62948
  21598382.094 7  21598377.551 9  -4325688.126 7  -3350239.560 9  21598377.60548
  23764477.086 6                    -52744.719 6    -18240.83457  23764474.72347
  21036604.461 6                  -3265191.391 6  -2524412.46148  21036599.08248
  20245135.414 6                    485465.738 6    376771.34748  20245130.37148
  23563201.461 4                   2085884.600 4   1603038.36547  23563197.84847
  22199087.617 6                   2478661.894 6   1913777.77847  22199081.09047
  22340930.484 5                   1702490.697 5   1316350.435 8  22340938.172 8
  19830588.664 7                   -935090.243 7   -722516.094 9  19830595.516 9
  22076849.672 5                    471477.424 5    357692.386 8  22076856.109 8
  20150854.563 7                  -3099491.279 7  -2393601.577 9  20150862.422 9
  22138758.883 6                    -47003.37116    -16031.29219  22138766.695 9
  22526762.805 5                    844636.569 5    643108.650 8  22526769.094 8
  21846817.672 5                   -305203.208 5   -235003.322 8  21846825.453 8
 11  2 28 13 50 25.0000000  0 15G02G04G07G08G10G13G20G23R01R02R11R12
                                R13R17R18
  21838410.789 5                  -4200472.596 5  -3229405.87047  21838404.41847
  20480096.414 6                   -740392.082 6   -570026.66648  20480092.07048
  21595340.977 6  21595336.625 9  -4341669.023 6  -3362692.193 9  21595336.78148
  23760502.070 5                    -73634.063 5    -34518.19247  23760500.03147
  21034323.445 6                  -3277178.968 6  -2533753.42748  21034318.30148
  20245707.422 6                    488470.440 6    379112.67148  20245701.93448
  23565236.375 4                   2096581.534 4   1611373.59146  23565232.84846
  22200945.516 6                   2488423.060 6   1921383.87547  22200938.84047
  22342563.641 5                   1711218.196 5   1323138.475 8  22342570.461 8
  19830012.680 7                   -938164.408 7   -724907.115 9  19830019.055 9
  22078913.391 5                    482509.502 5    366272.893 8  22078920.699 8
  20148971.320 7                  -3109550.126 7  -2401425.126 9  20148980.066 9
  22134165.953 6                    -71531.133 6    -35108.447 8  22134173.426 8
  22529614.688 5                    859891.965 5    654973.926 8  22529620.391 8
  21846958.641 5                   -304450.975 5   -234418.276 8  21846965.559 8
 11  2 28 13 50 30.0000000  0 15G02G04G07G08G10G13G20G23R01R02R11R12
                                R13R17R18
  21835581.852 5                  -4215338.756 5  -3240989.88147  21835575.52047
  20479931.281 6                   -741260.565 6   -570703.41548  20479926.57848
  21592300.148 6  21592296.320 9  -4357644.270 6  -3375140.433 9  21592296.34848
  23756525.609 5                    -94532.039 5    -50802.32647  23756523.06647
  21032043.563 6                  -3289158.269 6  -2543087.94848  21032038.90248
  20246281.719 6                    491491.155 6    381466.47848  20246276.75448
  23567275.031 3                   2107287.158 3   1619715.66446  23567270.54346
  22202805.867 6                   2498199.950 6   1929002.22647  22202799.19547
  22344199.273 5                   1719958.631 5   1329936.557 8  22344206.191 8
  19829438.617 7                   -941223.256 7   -727286.219 9  19829445.938 9
  22080983.086 4                    493572.169 4    374877.203 7  22080990.617 7
  20147093.234 7                  -3119584.105 7  -2409229.320 9  20147100.637 9
  22129572.766 6                    -96060.975 6    -54187.213 8  22129580.082 8
  22532465.242 3                    875143.164 3    666835.891 8  22532470.758 8
  21847103.602 5                   -303678.636 5   -233817.573 8  21847110.738 8
 11  2 28 13 50 35.0000000  0 15G02G04G07G08G10G13G20G23R01R02R11R12
                                R13R17R18
  21832757.055 5                  -4230184.175 5  -3252557.73947  21832750.26247
  20479768.211 7                   -742118.754 7   -571372.13448  20479763.76248
  21589260.289 7  21589256.168 9  -4373624.424 7  -3387592.497 9  21589256.02048
  23752544.609 5                   -115453.039 5    -67104.40747  23752541.60547
  21029766.484 6                  -3301123.474 6  -2552411.48848  21029761.84448
  20246860.609 6                    494531.272 6    383835.40248  20246855.41448
  23569312.063 5                   2117995.881 5   1628060.05146  23569308.64546
  22204670.078 6                   2507997.903 6   1936637.01447  22204663.60947
  22345836.500 5                   1728710.881 5   1336743.900 8  22345843.582 8
  19828869.813 7                   -944260.798 7   -729648.735 9  19828876.883 9
  22083061.805 4                    504674.687 4    383512.462 7  22083068.762 7
  20145218.398 7                  -3129597.165 7  -2417017.242 9  20145226.676 9
  22124975.336 7                   -120607.583 7    -73278.981 8  22124983.223 8
  22535313.281 5                    890382.13315    678688.44218  22535318.379 8
  21847252.523 5                   -302881.368 5   -233197.438 8  21847260.348 8
 11  2 28 13 50 40.0000000  0 15G02G04G07G08G10G13G20G23R01R02R11R12
                                R13R17R18
  21829937.438 5                  -4245001.107 5  -3264103.39847  21829930.77347
  20479607.664 7                   -742962.800 7   -572029.83248  20479603.08648
  21586217.719 7  21586213.590 9  -4389612.779 7  -3400050.946 9  21586213.54348
  23748558.594 5                   -136399.364 5    -83426.17447  23748556.41847
  21027493.500 6                  -3313068.190 6  -2561719.04848  21027488.91848
  20247442.641 7                    497591.363 7    386219.89048  20247437.55948
  23571349.352 5                   2128700.221 5   1636401.09847  23571344.21147
  22206538.180 6                   2517814.233 6   1944286.07047  22206531.52347
  22347473.875 5                   1737468.396 5   1343555.295 8  22347482.055 8
  19828304.422 7                   -947276.262 7   -731994.096 9  19828310.992 9
  22085146.703 5                    515815.881 5    392177.818 7  22085153.496 7
  20143347.102 7                  -3139593.954 7  -2424792.522 9  20143356.035 9
  22120374.922 6                   -145174.383 6    -92386.505 8  22120382.750 8
  22538158.273 5                    905614.595 5    690535.874 8  22538165.074 8
  21847407.570 5                   -302050.113 5   -232550.952 8  21847416.293 8
 11  2 28 13 50 45.0000000  0 15G02G04G07G08G10G13G20G23R01R02R11R12
                                R13R17R18
  21827121.867 6                  -4259797.408 6  -3275632.95747  21827115.46147
  20479448.813 7                   -743795.863 7   -572678.97048  20479444.68448
  21583174.430 7  21583169.957 9  -4405606.273 7  -3412513.394 9  21583169.78948
  23744568.547 5                   -157366.474 5    -99764.17148  23744567.19148
  21025222.898 6                  -3324999.370 6  -2571016.07948  21025217.77048
  20248028.742 7                    500667.198 7    388616.64948  20248022.83648
  23573385.664 6                   2139402.359 6   1644740.46947  23573381.28147
  22208408.578 6                   2527644.866 6   1951946.31747  22208402.58647
  22349114.102 6                   1746231.211 6   1350370.799 8  22349121.758 8
  19827742.617 7                   -950274.882 7   -734326.354 9  19827749.500 9
  22087237.766 5                    526989.856 5    400868.698 7  22087244.457 7
  20141478.352 8                  -3149573.725 8  -2432554.556 9  20141486.988 9
  22115771.563 7                   -169756.748 7   -111506.081 9  22115779.637 9
  22541004.188 6                    920839.655 6    702377.562 8  22541010.691 8
  21847568.867 6                   -301192.307 6   -231883.748 8  21847576.918 8
 11  2 28 13 50 50.0000000  0 14G02G04G07G10G13G20G23R01R02R11R12R13
                                R17R18
  21824311.734 5                  -4274563.875 5  -3287139.29747  21824305.36347
  20479292.523 7                   -744617.945 7   -573319.55548  20479288.19148
  21580128.320 7  21580123.754 9  -4421612.992 7  -3424986.145 9  21580123.77748
  21022957.078 6                  -3336908.495 6  -2580295.90748  21022952.60248
  20248618.203 7                    503766.294 7    391031.54348  20248612.39548
  23575421.172 5                   2150101.183 5   1653077.23647  23575417.17647
  22210284.047 5                   2537500.552 5   1959626.05447  22210277.38347
  22350755.305 5                   1755003.147 5   1357193.402 8  22350762.152 8
  19827186.320 7                   -953246.704 7   -736637.774 9  19827192.578 9
  22089337.820 5                    538211.101 5    409596.320 7  22089344.625 7
  20139613.898 7                  -3159536.277 7  -2440303.206 9  20139622.043 9
  22111163.656 6                   -194366.897 6   -130647.322 8  22111170.676 8
  22543845.523 5                    936049.857 5    714207.696 8  22543852.383 8
  21847736.063 5                   -300301.266 5   -231190.731 8  21847743.637 8
 11  2 28 13 50 55.0000000  0 15G02G04G07G08G10G13G20G23R01R02R11R12
                                R13R17R18
  21821506.000 5                  -4289308.461 5  -3298628.57047  21821499.45747
  20479138.641 7                   -745427.660 7   -573950.50748  20479133.74648
  21577081.563 6  21577076.926 9  -4437622.866 6  -3437461.375 9  21577076.79748
  23736572.055 5                   -199391.86015                
  21020693.789 6                  -3348802.765 6  -2589564.15748  21020689.26648
  20249211.148 6                    506883.055 6    393460.18548  20249205.69148
  23577456.898 4                   2160800.200 4   1661414.12347  23577453.54747
  22212162.414 5                   2547372.886 5   1967318.75747  22212156.42247
  22352397.172 4                   1763782.604 4   1364021.842 8  22352404.352 8
  19826632.289 7                   -956199.781 7   -738934.607 9  19826639.414 9
  22091444.102 4                    549467.351 4    418351.174 7  22091450.934 7
  20137751.914 7                  -3169479.539 7  -2448036.844 9  20137760.113 9
  22106552.063 6                   -218990.789 6   -149799.204 8  22106559.980 8
  22546688.266 4                    951253.325 4    726032.595 8  22546694.969 8
  21847907.836 5                   -299382.566 5   -230476.189 8  21847915.289 8
 11  2 28 13 51  0.0000000  0 15G02G04G07G08G10G13G20G23R01R02R11R12
                                R13R17R18
  21818704.047 5                  -4304030.853 5  -3310100.55247  21818697.84847
  20478986.039 7                   -746227.711 7   -574573.92548  20478981.84448
  21574033.344 6  21574029.156 9  -4453639.797 6  -3449942.092 9  21574029.12948
  23732567.641 5                   -220438.291 5   -141700.89657  23732564.03947
  21018432.914 6                  -3360681.400 6  -2598820.23148  21018427.96948
  20249808.188 6                    510020.238 6    395904.74648  20249802.79748
  23579493.938 5                   2171500.630 5   1669752.09847  23579490.29347
  22214045.531 5                   2557267.517 5   1975028.85047  22214039.21947
  22354041.945 3                   1772573.434 3   1370859.123 8  22354049.414 8
  19826083.328 7                   -959130.384 7   -741213.973 9  19826089.844 9
  22093557.664 4                    560765.518 4    427138.684 7  22093565.105 7
  20135894.617 7                  -3179402.520 7  -2455754.707 9  20135903.000 9
  22101937.023 6                   -243634.122 6   -168966.219 8  22101944.363 8
  22549524.820 4                    966443.045 4    737846.826 7  22549533.125 7
  21848084.992 5                   -298437.999 5   -229741.520 8  21848092.484 8
 11  2 28 13 51  5.0000000  0 15G02G04G07G08G10G13G20G23R01R02R11R12
                                R13R17R18
  21815905.570 5                  -4318737.748 5  -3321560.45947  21815899.18847
  20478835.203 7                   -747019.723 7   -575191.07048  20478830.93448
  21570985.602 6  21570981.367 9  -4469658.219 6  -3462423.967 9  21570981.17648
  23728558.641 5                   -241504.679 5   -158116.25047  23728555.19947
  21016174.688 6                  -3372550.074 6  -2608068.55748  21016170.02048
  20250408.461 6                    513176.427 6    398364.11248  20250403.38748
  23581531.430 3                   2182209.136 3   1678096.34746  23581527.84046
  22215933.281 5                   2567184.462 5   1982756.34147  22215926.27747
  22355688.641 4                   1781379.916 4   1377708.579 8  22355696.215 8
  19825537.648 7                   -962040.853 7   -743477.674 9  19825544.875 9
  22095680.844 4                    572103.448 4    435957.053 7  22095687.082 7
  20134042.180 7                  -3189301.016 7  -2463453.549 9  20134050.012 9
  22097318.930 6                   -268289.919 6   -188142.942 8  22097327.527 8
  22552361.680 5                    981618.065 5    749649.615 8  22552369.301 8
  21848265.758 5                   -297474.253 5   -228991.952 8  21848273.293 8
 11  2 28 13 51 10.0000000  0 15G02G04G07G08G10G13G20G23R01R02R11R12
                                R13R17R18
  21813108.453 6                  -4333437.206 6  -3333014.57048  21813101.86748
  20478686.547 7                   -747802.690 7   -575801.17648  20478681.42648
  21567939.070 6  21567934.164 9  -4485668.139 6  -3474899.224 9  21567933.94148
  23724548.211 5                   -262577.679 5   -174536.74847  23724545.59447
  21013916.586 6                  -3384415.801 6  -2617314.58348  21013911.48048
  20251012.508 7                    516347.775 7    400835.28648  20251006.61348
  23583571.711 4                   2192931.077 4   1686451.13146  23583568.14846
  22217823.406 5                   2577118.294 5   1990496.97947  22217817.55147
  22357339.922 4                   1790203.390 4   1384571.268 8  22357346.594 8
  19824994.898 7                   -964937.472 7   -745730.601 9  19825001.848 9
  22097808.492 5                    583471.756 5    444799.063 7  22097814.531 7
  20132193.891 7                  -3199171.168 7  -2471130.327 8  20132202.406 8
  22092702.258 6                   -292944.728 6   -207318.896 8  22092709.910 8
  22555196.969 6                    996784.027 6    761445.356 8  22555202.477 8
  21848447.516 6                   -296498.478 6   -228233.014 8  21848456.180 8
 11  2 28 13 51 15.0000000  0 15G02G04G07G08G10G13G20G23R01R02R11R12
                                R13R17R18
  21810307.023 5                  -4348159.636 5  -3344486.60047  21810300.40647
  20478537.609 7                   -748583.760 7   -576409.80048  20478533.59448
  21564899.219 6  21564895.223 9  -4501643.909 6  -3487347.867 9  21564894.93448
  23720541.781 6                   -283631.654 6   -190942.43947  23720539.39547
  21011654.617 6                  -3396303.219 6  -2626577.50548  21011650.32848
  20251618.180 6                    519532.209 6    403316.66148  20251612.75448
  23585621.383 4                   2203701.092 4   1694843.32346  23585617.18846
  22219718.164 5                   2587076.015 5   1998256.24547  22219711.71547
  22358999.172 4                   1799070.957 4   1391468.268 8  22359006.301 8
  19824453.703 7                   -967826.041 7   -747977.266 9  19824460.039 9
  22099940.016 5                    594867.685 5    453662.572 7  22099946.551 7
  20130355.938 7                  -3208990.265 7  -2478767.392 9  20130363.676 9
  22088091.750 6                   -317567.296 6   -226469.778 8  22088099.184 8
  22558027.313 5                   1011933.302 5    773228.104 8  22558032.934 8
  21848626.891 5                   -295543.867 5   -227490.548 8  21848634.852 8
 11  2 28 13 51 20.0000000  0 15G02G04G07G08G10G13G20G23R01R02R11R12
                                R13R17R18
  21807488.297 6                  -4362972.033 6  -3356028.72047  21807481.64147
  20478384.516 7                   -749389.650 7   -577037.77648  20478380.27748
  21561873.289 7  21561868.727 9  -4517543.302 7  -3499737.002 9  21561868.77048
  23716545.250 6                   -304635.556 6   -207309.10247  23716543.02347
  21009378.305 6                  -3408265.602 6  -2635898.83948  21009373.45348
  20252227.648 7                    522734.622 7    405812.04448  20252222.18448
  23587694.961 4                   2214601.918 4   1703337.49347  23587691.86347
  22221624.617 6                   2597094.920 6   2006063.18447  22221617.98047
  22360679.445 5                   1808057.302 5   1398457.604 8  22360687.324 8
  19823914.656 7                   -970705.301 7   -750216.693 9  19823921.168 9
  22102081.586 5                    606310.201 5    462562.301 7  22102088.469 7
  20128537.250 8                  -3218703.887 8  -2486322.430 9  20128545.574 9
  22083494.320 7                   -342111.066 7   -245559.370 8  22083502.910 8
  22560846.445 6                   1027020.117 6    784962.269 8  22560852.328 8
  21848787.516 6                   -294690.479 6   -226826.803 8  21848794.988 8
 11  2 28 13 51 25.0000000  0 15G02G04G07G08G10G13G20G23R01R02R11R12
                                R13R17R18
  21804649.984 6                  -4377883.905 6  -3367648.34147  21804644.29747
  20478225.922 7                   -750223.879 7   -577687.82448  20478221.36348
  21558863.516 7  21558858.961 9  -4533359.845 7  -3512061.584 9  21558859.29748
  23712559.148 6                   -325584.761 6   -223633.20847  23712555.79347
  21007086.758 6                  -3420310.438 6  -2645284.43748  21007081.68048
  20252840.516 7                    525956.003 7    408322.22248  20252835.50848
  23589795.000 4                   2225645.702 4   1711943.06946  23589792.93846
  22223544.000 6                   2607180.438 6   2013921.99047  22223537.81347
  22362385.750 6                   1817173.627 6   1405548.112 8  22362393.266 8
  19823376.711 8                   -973574.785 8   -752448.506 9  19823383.215 9
  22104231.797 5                    617802.151 5    471500.518 7  22104239.887 7
  20126739.641 8                  -3228304.188 8  -2493789.343 9  20126747.988 9
  22078914.836 6                   -366568.406 6   -264581.855 8  22078922.363 8
  22563652.781 7                   1042038.290 7    796642.985 8  22563659.941 8
  21848925.906 7                   -293949.943 7   -226250.785 8  21848933.090 8
 11  2 28 13 51 30.0000000  0 15G02G04G07G08G10G13G20G23R01R02R11R12
                                R13R17R18
  21801814.234 7                  -4392788.482 7  -3379262.31348  21801807.56348
  20478069.813 7                   -751044.046 7   -578326.91948  20478065.13348
  21555856.609 7  21555852.500 9  -4549161.511 7  -3524374.564 9  21555852.55548
  23708574.102 6                   -346528.814 6   -239953.23247  23708570.57047
  21004794.109 6                  -3432352.694 6  -2654668.00448  21004790.47348
  20253455.883 7                    529188.170 7    410840.79648  20253450.77348
  23591899.398 4                   2236700.142 4   1720556.88046  23591896.75846
  22225464.531 6                   2617273.115 6   2021786.42447  22225457.85947
  22364093.695 6                   1826300.313 6   1412646.656 8  22364099.730 8
  19822841.172 8                   -976436.430 8   -754674.236 9  19822848.016 9
  22106385.969 6                    629312.139 6    480452.717 7  22106393.207 7
  20124947.438 8                  -3237878.399 8  -2501235.931 9  20124956.129 9
  22074337.375 7                   -391014.930 7   -283595.772 8  22074345.043 8
  22566458.438 7                   1057060.644 7    808327.051 8  22566466.246 8
  21849067.492 7                   -293194.558 7   -225663.288 8  21849075.121 8
